Name,URL,Longitude,Latitude,Country
Tauschwitz Startplatz,https://service.dhv.de/db2/details.php?qi=glp_details&popup=1&item=4,11.415460,50.631579,DE
Knobelsdorf Startplatz,https://service.dhv.de/db2/details.php?qi=glp_details&popup=1&item=5,11.371171,50.606856,DE
Engerda Startplatz,https://service.dhv.de/db2/details.php?qi=glp_details&popup=1&item=6,11.424450,50.792413,DE
Scheibentalberg Übungshang,https://service.dhv.de/db2/details.php?qi=glp_details&popup=1&item=10,11.974926,50.991556,DE
Wache Startplatz,https://service.dhv.de/db2/details.php?qi=glp_details&popup=1&item=26,13.785566,50.755096,DE
Schauhübel Startplatz,https://service.dhv.de/db2/details.php?qi=glp_details&popup=1&item=27,13.807025,50.748051,DE
Glauchberg Startplatz,https://service.dhv.de/db2/details.php?qi=glp_details&popup=1&item=28,13.781469,50.798625,DE
Ascheloh Übungshang,https://service.dhv.de/db2/details.php?qi=glp_details&popup=1&item=46,8.406558,52.047450,DE
Hoher Meissner Uengsterode Startplatz,https://service.dhv.de/db2/details.php?qi=glp_details&popup=1&item=50,9.846333,51.245639,DE
Hoher Meissner Vockerode Startplatz,https://service.dhv.de/db2/details.php?qi=glp_details&popup=1&item=51,9.873877,51.209706,DE
Eisenberg Westhang Startplatz,https://service.dhv.de/db2/details.php?qi=glp_details&popup=1&item=59,8.619886,51.015847,DE
Börry am Hellberg Startplatz,https://service.dhv.de/db2/details.php?qi=glp_details&popup=1&item=66,9.458199,52.046717,DE
Hohe Nordosthang Startplatz,https://service.dhv.de/db2/details.php?qi=glp_details&popup=1&item=71,9.457835,51.955225,DE
Königszinne Startplatz,https://service.dhv.de/db2/details.php?qi=glp_details&popup=1&item=72,9.525919,51.977955,DE
Pegestorf Startplatz,https://service.dhv.de/db2/details.php?qi=glp_details&popup=1&item=74,9.491286,51.940058,DE
Mellbeck Startplatz,https://service.dhv.de/db2/details.php?qi=glp_details&popup=1&item=79,7.186389,51.311667,DE
Dielmissen - Ith Startplatz,https://service.dhv.de/db2/details.php?qi=glp_details&popup=1&item=80,9.626201,51.981219,DE
Brunsberg Startplatz,https://service.dhv.de/db2/details.php?qi=glp_details&popup=1&item=82,9.349880,51.747399,DE
Mehring Startplatz,https://service.dhv.de/db2/details.php?qi=glp_details&popup=1&item=83,6.837562,49.781271,DE
Maring-Noviand Startplatz Südost Kaisereiche,https://service.dhv.de/db2/details.php?qi=glp_details&popup=1&item=85,6.990278,49.943889,DE
Serrig und Hamm Startplatz,https://service.dhv.de/db2/details.php?qi=glp_details&popup=1&item=86,6.615551,49.569001,DE
Neumagen-Dhron Startplatz,https://service.dhv.de/db2/details.php?qi=glp_details&popup=1&item=87,6.887694,49.877444,DE
Stachelhardt Startplatz,https://service.dhv.de/db2/details.php?qi=glp_details&popup=1&item=95,7.376745,50.780884,DE
Pünderich Startplatz,https://service.dhv.de/db2/details.php?qi=glp_details&popup=1&item=96,7.126537,50.047078,DE
Zeltingen-Rachtig Startplatz,https://service.dhv.de/db2/details.php?qi=glp_details&popup=1&item=97,6.993141,49.961546,DE
Langer Berg Startplatz,https://service.dhv.de/db2/details.php?qi=glp_details&popup=1&item=98,7.713690,49.763831,DE
Bohnstein Startplatz,https://service.dhv.de/db2/details.php?qi=glp_details&popup=1&item=101,8.350725,50.883678,DE
Wixberg Startplatz S-SO,https://service.dhv.de/db2/details.php?qi=glp_details&popup=1&item=116,7.666667,51.318611,DE
Nordhelle Startplatz (Drachen),https://service.dhv.de/db2/details.php?qi=glp_details&popup=1&item=117,7.754834,51.150214,DE
Skihang Ebbefeld/Nordhelle Startplatz Gleitschirm,https://service.dhv.de/db2/details.php?qi=glp_details&popup=1&item=120,7.755146,51.151167,DE
Homberg-Züschen Startplatz,https://service.dhv.de/db2/details.php?qi=glp_details&popup=1&item=127,8.541208,51.134618,DE
Elpe-Steinmarkskopf Startplatz,https://service.dhv.de/db2/details.php?qi=glp_details&popup=1&item=130,8.432071,51.269387,DE
Großheubach / Busigberg Startplatz,https://service.dhv.de/db2/details.php?qi=glp_details&popup=1&item=132,9.207230,49.733980,DE
Bürgstadt / Wannenberg Startplatz,https://service.dhv.de/db2/details.php?qi=glp_details&popup=1&item=133,9.288462,49.721156,DE
Erlau Ost-Startplatz,https://service.dhv.de/db2/details.php?qi=glp_details&popup=1&item=134,8.821911,49.742814,DE
Momart Übungshang,https://service.dhv.de/db2/details.php?qi=glp_details&popup=1&item=137,9.038656,49.726497,DE
Gösberg Übungshang,https://service.dhv.de/db2/details.php?qi=glp_details&popup=1&item=140,6.816201,49.445696,DE
Sinnhöll Startplatz,https://service.dhv.de/db2/details.php?qi=glp_details&popup=1&item=142,7.541600,49.622385,DE
Schriesheim Startplatz,https://service.dhv.de/db2/details.php?qi=glp_details&popup=1&item=144,8.678824,49.464505,DE
Stauf Startplatz Südost,https://service.dhv.de/db2/details.php?qi=glp_details&popup=1&item=146,8.027519,49.549490,DE
Nieder-Liebersbach Übungshang,https://service.dhv.de/db2/details.php?qi=glp_details&popup=1&item=147,8.710556,49.595556,DE
Klüsserath Startplatz 1 Südwest,https://service.dhv.de/db2/details.php?qi=glp_details&popup=1&item=149,6.871165,49.847669,DE
Longuich Startplatz,https://service.dhv.de/db2/details.php?qi=glp_details&popup=1&item=150,6.780818,49.811944,DE
Schnaithalde Startplatz,https://service.dhv.de/db2/details.php?qi=glp_details&popup=1&item=157,9.057594,48.296481,DE
Wanne Startplatz,https://service.dhv.de/db2/details.php?qi=glp_details&popup=1&item=160,9.227456,48.446053,DE
Skiliftgelände Hausen a.d.L. Startplatz,https://service.dhv.de/db2/details.php?qi=glp_details&popup=1&item=164,9.187961,48.298926,DE
Messelberg Startplatz,https://service.dhv.de/db2/details.php?qi=glp_details&popup=1&item=167,9.838943,48.679542,DE
Duchroth Nord Startplatz,https://service.dhv.de/db2/details.php?qi=glp_details&popup=1&item=170,7.722417,49.775468,DE
Rabenfelsen Startplatz,https://service.dhv.de/db2/details.php?qi=glp_details&popup=1&item=173,9.796285,48.613796,DE
Wiesensteig Startplatz,https://service.dhv.de/db2/details.php?qi=glp_details&popup=1&item=174,9.616395,48.570523,DE
Braunenberg Startplatz,https://service.dhv.de/db2/details.php?qi=glp_details&popup=1&item=175,10.137307,48.856794,DE
Ipf Startplatz,https://service.dhv.de/db2/details.php?qi=glp_details&popup=1&item=176,10.357071,48.870480,DE
Eberfirst Startplatz 1 (Rampe für HG),https://service.dhv.de/db2/details.php?qi=glp_details&popup=1&item=180,9.322940,49.187948,DE
Einkorn Startplatz Süd-West,https://service.dhv.de/db2/details.php?qi=glp_details&popup=1&item=182,9.775986,49.089831,DE
Geddelsbacher Hang Startplatz,https://service.dhv.de/db2/details.php?qi=glp_details&popup=1&item=186,9.495447,49.151826,DE
Adolzfurt Startplatz,https://service.dhv.de/db2/details.php?qi=glp_details&popup=1&item=188,9.471306,49.160552,DE
Loffenau Weststart Teufelsmühle Startplatz,https://service.dhv.de/db2/details.php?qi=glp_details&popup=1&item=191,8.407178,48.756675,DE
Schreckhof (Westhang) Startplatz,https://service.dhv.de/db2/details.php?qi=glp_details&popup=1&item=192,9.104726,49.362490,DE
Schreckhof Startplatz,https://service.dhv.de/db2/details.php?qi=glp_details&popup=1&item=193,9.107537,49.360534,DE
Hohenberg Startplatz,https://service.dhv.de/db2/details.php?qi=glp_details&popup=1&item=194,8.001901,49.201141,DE
Mulfingen Startplatz,https://service.dhv.de/db2/details.php?qi=glp_details&popup=1&item=197,9.812346,49.334232,DE
Oberried Startplatz,https://service.dhv.de/db2/details.php?qi=glp_details&popup=1&item=198,7.954444,47.920339,DE
Steingrubenberg Südwestseite Übungshang,https://service.dhv.de/db2/details.php?qi=glp_details&popup=1&item=202,8.039588,48.025036,DE
Teufelsberg Startplatz,https://service.dhv.de/db2/details.php?qi=glp_details&popup=1&item=205,9.043769,49.003020,DE
Türkheim Startplatz,https://service.dhv.de/db2/details.php?qi=glp_details&popup=1&item=206,9.805639,48.590472,DE
Pfulb Startplatz,https://service.dhv.de/db2/details.php?qi=glp_details&popup=1&item=207,9.538471,48.528322,DE
Filzberg Übungsgelände,https://service.dhv.de/db2/details.php?qi=glp_details&popup=1&item=210,10.935259,51.335063,DE
Dackstal Übungshang,https://service.dhv.de/db2/details.php?qi=glp_details&popup=1&item=211,10.924530,51.360741,DE
Feuerkuppe Startplatz,https://service.dhv.de/db2/details.php?qi=glp_details&popup=1&item=218,10.749014,51.395369,DE
Am Schützenkreuz Übungshang,https://service.dhv.de/db2/details.php?qi=glp_details&popup=1&item=226,8.743056,49.545833,DE
Willingen-Ettelsberg Startplatz,https://service.dhv.de/db2/details.php?qi=glp_details&popup=1&item=227,8.599387,51.282018,DE
Wachtelberg Startplatz,https://service.dhv.de/db2/details.php?qi=glp_details&popup=1&item=231,13.667336,50.981182,DE
Thalhäusl Übungshang,https://service.dhv.de/db2/details.php?qi=glp_details&popup=1&item=238,11.980161,47.759074,DE
Auf dem Harsberg Startplatz,https://service.dhv.de/db2/details.php?qi=glp_details&popup=1&item=239,10.372617,51.074464,DE
Galgenberg Startplatz,https://service.dhv.de/db2/details.php?qi=glp_details&popup=1&item=240,7.678776,47.970965,DE
Raumbach Startplatz,https://service.dhv.de/db2/details.php?qi=glp_details&popup=1&item=242,7.658372,49.726754,DE
Pensenwiesen Startplatz,https://service.dhv.de/db2/details.php?qi=glp_details&popup=1&item=247,11.659853,49.937558,DE
Neubürg Startplatz Nordwest,https://service.dhv.de/db2/details.php?qi=glp_details&popup=1&item=248,11.401678,49.891963,DE
Windberg Übungshang,https://service.dhv.de/db2/details.php?qi=glp_details&popup=1&item=250,12.742682,48.941389,DE
Adorf / Wirmighausen Startplatz,https://service.dhv.de/db2/details.php?qi=glp_details&popup=1&item=257,8.830476,51.350812,DE
Drehkopf Startplatz,https://service.dhv.de/db2/details.php?qi=glp_details&popup=1&item=258,8.092954,47.860224,DE
Kreuzberg Startplatz Drachen,https://service.dhv.de/db2/details.php?qi=glp_details&popup=1&item=262,9.984426,50.376124,DE
Arnsberg Startplatz,https://service.dhv.de/db2/details.php?qi=glp_details&popup=1&item=263,9.956617,50.398506,DE
Iseler Startplatz,https://service.dhv.de/db2/details.php?qi=glp_details&popup=1&item=264,10.412222,47.502378,DE
Imberger Horn Startplatz GS,https://service.dhv.de/db2/details.php?qi=glp_details&popup=1&item=265,10.363423,47.489101,DE
Hirschberg Startplatz,https://service.dhv.de/db2/details.php?qi=glp_details&popup=1&item=266,10.376769,47.517312,DE
Melibokus Startplatz,https://service.dhv.de/db2/details.php?qi=glp_details&popup=1&item=267,8.635734,49.725291,DE
Heidelsheimer Weg Startplatz,https://service.dhv.de/db2/details.php?qi=glp_details&popup=1&item=268,8.694305,49.112310,DE
Orensberg Startplatz,https://service.dhv.de/db2/details.php?qi=glp_details&popup=1&item=277,8.026333,49.240450,DE
Spitzfelsen Startplatz,https://service.dhv.de/db2/details.php?qi=glp_details&popup=1&item=278,8.202233,48.293004,DE
Prinzbach Startplatz,https://service.dhv.de/db2/details.php?qi=glp_details&popup=1&item=279,8.009012,48.329721,DE
Kohleckle Berghaupten Startplatz,https://service.dhv.de/db2/details.php?qi=glp_details&popup=1&item=280,7.966386,48.413621,DE
Lauf Startplatz,https://service.dhv.de/db2/details.php?qi=glp_details&popup=1&item=281,8.162649,48.625080,DE
Hornisgrinde - Katzenkopf Startplatz,https://service.dhv.de/db2/details.php?qi=glp_details&popup=1&item=282,8.196231,48.596920,DE
Eichberg/Stutz Startplatz,https://service.dhv.de/db2/details.php?qi=glp_details&popup=1&item=283,8.514347,47.848219,DE
Dreifaltigkeitsberg Startplatz,https://service.dhv.de/db2/details.php?qi=glp_details&popup=1&item=284,8.760138,48.083921,DE
Balgheim Startplatz,https://service.dhv.de/db2/details.php?qi=glp_details&popup=1&item=285,8.782024,48.066063,DE
Fürstenberg Startplatz Süd,https://service.dhv.de/db2/details.php?qi=glp_details&popup=1&item=286,8.562684,47.889327,DE
Breitnau Startplatz Branden,https://service.dhv.de/db2/details.php?qi=glp_details&popup=1&item=288,7.833658,47.869761,DE
Gschasi Startplatz,https://service.dhv.de/db2/details.php?qi=glp_details&popup=1&item=289,8.128686,48.186185,DE
Weiherkopf Startplatz,https://service.dhv.de/db2/details.php?qi=glp_details&popup=1&item=290,7.778359,47.803544,DE
Sonnhaldeberg Startplatz,https://service.dhv.de/db2/details.php?qi=glp_details&popup=1&item=291,7.826385,47.884938,DE
Drei-Kreis-Eck Startplatz,https://service.dhv.de/db2/details.php?qi=glp_details&popup=1&item=292,8.179626,48.183974,DE
Wieden-Warbach Startplatz,https://service.dhv.de/db2/details.php?qi=glp_details&popup=1&item=293,7.875438,47.833872,DE
Hörnleberg Süd-Startplatz,https://service.dhv.de/db2/details.php?qi=glp_details&popup=1&item=294,8.044444,48.127417,DE
Wittental Startplatz,https://service.dhv.de/db2/details.php?qi=glp_details&popup=1&item=295,7.957672,47.990292,DE
Am Kirchweg Startplatz,https://service.dhv.de/db2/details.php?qi=glp_details&popup=1&item=296,7.997038,47.959121,DE
Hinter Riedern Startplatz,https://service.dhv.de/db2/details.php?qi=glp_details&popup=1&item=299,8.003904,48.116894,DE
Tafelbühl Startplatz,https://service.dhv.de/db2/details.php?qi=glp_details&popup=1&item=300,8.083824,48.127780,DE
Hochblauen Nord,https://service.dhv.de/db2/details.php?qi=glp_details&popup=1&item=301,7.700000,47.778467,DE
Eck Startplatz,https://service.dhv.de/db2/details.php?qi=glp_details&popup=1&item=303,7.918310,47.688214,DE
Ehrsberg Startplatz,https://service.dhv.de/db2/details.php?qi=glp_details&popup=1&item=304,7.907882,47.750809,DE
Fröhnd Schneckenkopf Startplatz,https://service.dhv.de/db2/details.php?qi=glp_details&popup=1&item=308,7.910000,47.770833,DE
Breitmoos Übungshang,https://service.dhv.de/db2/details.php?qi=glp_details&popup=1&item=309,7.861007,47.838288,DE
Hochfirst Startplatz,https://service.dhv.de/db2/details.php?qi=glp_details&popup=1&item=310,8.183506,47.901401,DE
Skilift Stierhütte Übungshang,https://service.dhv.de/db2/details.php?qi=glp_details&popup=1&item=313,8.133470,47.866767,DE
Altglashütten / Kapellenhof Startplatz,https://service.dhv.de/db2/details.php?qi=glp_details&popup=1&item=314,8.103619,47.848936,DE
Hausberg Startplatz,https://service.dhv.de/db2/details.php?qi=glp_details&popup=1&item=316,11.096234,47.465048,DE
Bernau - Innerlehen Startplatz Lehenköpfle,https://service.dhv.de/db2/details.php?qi=glp_details&popup=1&item=317,8.025513,47.798512,DE
Wank Ost und Nordost-Startplatz,https://service.dhv.de/db2/details.php?qi=glp_details&popup=1&item=320,11.143730,47.508316,DE
Osterfelder Ost-Startplatz (Hauptstartplatz),https://service.dhv.de/db2/details.php?qi=glp_details&popup=1&item=321,11.050017,47.438200,DE
Berghalde Übungshang Startplatz,https://service.dhv.de/db2/details.php?qi=glp_details&popup=1&item=326,11.386492,47.756651,DE
Sulzberg Startplatz,https://service.dhv.de/db2/details.php?qi=glp_details&popup=1&item=328,12.062479,47.745092,DE
Heuberg Startplatz,https://service.dhv.de/db2/details.php?qi=glp_details&popup=1&item=329,12.183924,47.725873,DE
Unternberg Bärngschwendt Übungshang Startplatz,https://service.dhv.de/db2/details.php?qi=glp_details&popup=1&item=330,12.630278,47.743250,DE
Froschsee Startplatz,https://service.dhv.de/db2/details.php?qi=glp_details&popup=1&item=333,12.693682,47.757199,DE
Rauschberg Startplatz,https://service.dhv.de/db2/details.php?qi=glp_details&popup=1&item=335,12.685556,47.733056,DE
Unternberg Nord Startplatz,https://service.dhv.de/db2/details.php?qi=glp_details&popup=1&item=336,12.638333,47.728333,DE
Rampoldplatte Startplatz,https://service.dhv.de/db2/details.php?qi=glp_details&popup=1&item=340,12.041667,47.725556,DE
Predigtstuhl Startplatz Schreck,https://service.dhv.de/db2/details.php?qi=glp_details&popup=1&item=341,12.889667,47.688917,DE
Mittelstaufen Startplatz,https://service.dhv.de/db2/details.php?qi=glp_details&popup=1&item=343,12.833061,47.755367,DE
Kampenwand Startplatz 1 oben (Hotelhang),https://service.dhv.de/db2/details.php?qi=glp_details&popup=1&item=344,12.352767,47.753283,DE
Hochfelln Oststart,https://service.dhv.de/db2/details.php?qi=glp_details&popup=1&item=346,12.559551,47.761675,DE
Hochplatte Startplatz (Rachelhang),https://service.dhv.de/db2/details.php?qi=glp_details&popup=1&item=347,12.421020,47.767383,DE
"Blomberg Startplatz NO, NW",https://service.dhv.de/db2/details.php?qi=glp_details&popup=1&item=352,11.507210,47.734460,DE
Sonnenbichlhang Startplatz,https://service.dhv.de/db2/details.php?qi=glp_details&popup=1&item=355,11.712070,47.702210,DE
Bucherhang Startplatz,https://service.dhv.de/db2/details.php?qi=glp_details&popup=1&item=358,11.720824,47.693415,DE
Hinterholzhausen Startplatz,https://service.dhv.de/db2/details.php?qi=glp_details&popup=1&item=366,12.008450,48.419109,DE
Böhming Startplatz,https://service.dhv.de/db2/details.php?qi=glp_details&popup=1&item=370,11.350079,48.944566,DE
Oberemmendorf Startplatz,https://service.dhv.de/db2/details.php?qi=glp_details&popup=1&item=371,11.443645,48.989488,DE
Alpspitze Startplatz Steiler Hund,https://service.dhv.de/db2/details.php?qi=glp_details&popup=1&item=381,10.499281,47.597308,DE
Hochgrat Startplatz,https://service.dhv.de/db2/details.php?qi=glp_details&popup=1&item=382,10.072918,47.494154,DE
Mittag Startplatz Süd,https://service.dhv.de/db2/details.php?qi=glp_details&popup=1&item=386,10.215692,47.535761,DE
Grünten Startplatz West,https://service.dhv.de/db2/details.php?qi=glp_details&popup=1&item=387,10.308764,47.565610,DE
Hinang-Schöllang Startplatz,https://service.dhv.de/db2/details.php?qi=glp_details&popup=1&item=388,10.302429,47.470516,DE
Bettenried Startplatz,https://service.dhv.de/db2/details.php?qi=glp_details&popup=1&item=389,10.238367,47.509707,DE
Sinswang Startplatz,https://service.dhv.de/db2/details.php?qi=glp_details&popup=1&item=390,9.996748,47.567276,DE
Urenschwang Startplatz,https://service.dhv.de/db2/details.php?qi=glp_details&popup=1&item=392,9.636769,48.367769,DE
Nebelhorn Gipfel Startplatz 6 (westl. Bergstation),https://service.dhv.de/db2/details.php?qi=glp_details&popup=1&item=395,10.341541,47.421750,DE
Weiherkopf / Hörnerbahn Startplatz,https://service.dhv.de/db2/details.php?qi=glp_details&popup=1&item=396,10.201328,47.465161,DE
Am Jordanbad,https://service.dhv.de/db2/details.php?qi=glp_details&popup=1&item=397,9.831948,48.079140,DE
Steurer Startplatz,https://service.dhv.de/db2/details.php?qi=glp_details&popup=1&item=398,10.108194,47.474519,DE
Grüner Weg Startplatz,https://service.dhv.de/db2/details.php?qi=glp_details&popup=1&item=400,10.258471,47.456165,DE
Buchenberg Startplatz 1,https://service.dhv.de/db2/details.php?qi=glp_details&popup=1&item=408,10.810418,47.606481,DE
Scheiber / Tiroler Stadl Startplatz,https://service.dhv.de/db2/details.php?qi=glp_details&popup=1&item=428,10.553269,47.556864,DE
Berleberg Startplatz,https://service.dhv.de/db2/details.php?qi=glp_details&popup=1&item=429,10.469198,47.753405,DE
Rehlehalde / Schöner Berg Startplatz,https://service.dhv.de/db2/details.php?qi=glp_details&popup=1&item=432,10.580177,47.865926,DE
Walberla Startplatz,https://service.dhv.de/db2/details.php?qi=glp_details&popup=1&item=437,11.151853,49.719707,DE
Auf dem Bichel / Auf der Höhe Startplatz,https://service.dhv.de/db2/details.php?qi=glp_details&popup=1&item=438,10.519709,47.621033,DE
Hesselberg Südhang Startplatz,https://service.dhv.de/db2/details.php?qi=glp_details&popup=1&item=439,10.531683,49.066647,DE
Röhrenhalde Übungshang,https://service.dhv.de/db2/details.php?qi=glp_details&popup=1&item=440,10.498089,47.685759,DE
Bertoldshofen Startplatz,https://service.dhv.de/db2/details.php?qi=glp_details&popup=1&item=441,10.665450,47.787988,DE
Obergrainet Startplatz,https://service.dhv.de/db2/details.php?qi=glp_details&popup=1&item=443,13.671670,48.801281,DE
Übungshang Dollnstein,https://service.dhv.de/db2/details.php?qi=glp_details&popup=1&item=445,11.086127,48.848196,DE
Obereichstätt Startplatz 1,https://service.dhv.de/db2/details.php?qi=glp_details&popup=1&item=446,11.135050,48.896704,DE
Voithenberg Startplatz,https://service.dhv.de/db2/details.php?qi=glp_details&popup=1&item=449,12.792377,49.334715,DE
Burgberg Kreuz Startplatz,https://service.dhv.de/db2/details.php?qi=glp_details&popup=1&item=450,11.955107,49.167612,DE
Osser Startplatz,https://service.dhv.de/db2/details.php?qi=glp_details&popup=1&item=452,13.099051,49.203972,DE
Premberg Startplatz,https://service.dhv.de/db2/details.php?qi=glp_details&popup=1&item=459,12.073159,49.234778,DE
Buchberg Startplatz,https://service.dhv.de/db2/details.php?qi=glp_details&popup=1&item=466,12.029793,49.514663,DE
Kohlberg Übungshang,https://service.dhv.de/db2/details.php?qi=glp_details&popup=1&item=468,12.031660,49.593855,DE
Hoher Bogen Startplatz Ahornriegel NW,https://service.dhv.de/db2/details.php?qi=glp_details&popup=1&item=469,12.941944,49.235000,DE
Jachenhausen Startplatz,https://service.dhv.de/db2/details.php?qi=glp_details&popup=1&item=471,11.699581,48.987399,DE
Sommerberg Startplatz,https://service.dhv.de/db2/details.php?qi=glp_details&popup=1&item=473,12.747083,49.036667,DE
Pröller Startplatz Gipfel Nordhang,https://service.dhv.de/db2/details.php?qi=glp_details&popup=1&item=475,12.821484,49.022265,DE
Winzerer Höhen Startplatz,https://service.dhv.de/db2/details.php?qi=glp_details&popup=1&item=479,12.056529,49.035351,DE
Steinbühler Gesenke Startplatz,https://service.dhv.de/db2/details.php?qi=glp_details&popup=1&item=480,12.951306,49.173086,DE
Ofenthaler Berg Startplatz,https://service.dhv.de/db2/details.php?qi=glp_details&popup=1&item=483,9.909967,50.125447,DE
Heckenkopf - Rauschen / Faulbach Startplatz,https://service.dhv.de/db2/details.php?qi=glp_details&popup=1&item=486,9.466116,49.782303,DE
Homburg Startplatz,https://service.dhv.de/db2/details.php?qi=glp_details&popup=1&item=492,9.798167,50.026661,DE
Edelweiß Startplatz,https://service.dhv.de/db2/details.php?qi=glp_details&popup=1&item=494,9.757061,49.994526,DE
Großneundorf Startplatz,https://service.dhv.de/db2/details.php?qi=glp_details&popup=1&item=495,11.293516,50.537408,DE
Oberer Gemeindeberg/Unterer Gemeindeberg Startplatz,https://service.dhv.de/db2/details.php?qi=glp_details&popup=1&item=497,9.738253,48.925008,DE
Grün Startplatz Plösenthal,https://service.dhv.de/db2/details.php?qi=glp_details&popup=1&item=498,11.350690,50.180859,DE
Radspitze Startplatz,https://service.dhv.de/db2/details.php?qi=glp_details&popup=1&item=500,11.434028,50.235392,DE
Hainberg Startplatz,https://service.dhv.de/db2/details.php?qi=glp_details&popup=1&item=502,11.525774,50.162604,DE
Görauer Anger Startplatz,https://service.dhv.de/db2/details.php?qi=glp_details&popup=1&item=503,11.316969,50.053736,DE
Büchelstein Startplatz,https://service.dhv.de/db2/details.php?qi=glp_details&popup=1&item=505,13.175588,48.808156,DE
Hausstein Startplatz,https://service.dhv.de/db2/details.php?qi=glp_details&popup=1&item=509,13.073307,48.870962,DE
Jenner Startplatz HG,https://service.dhv.de/db2/details.php?qi=glp_details&popup=1&item=521,13.024676,47.576587,DE
Finkenhof Startplatz,https://service.dhv.de/db2/details.php?qi=glp_details&popup=1&item=527,9.092173,49.334687,DE
Saalhausen - Dolberg Startplatz,https://service.dhv.de/db2/details.php?qi=glp_details&popup=1&item=528,8.160873,51.107927,DE
Osthang Startplatz,https://service.dhv.de/db2/details.php?qi=glp_details&popup=1&item=531,11.910513,49.025328,DE
Schneitweg Startplatz,https://service.dhv.de/db2/details.php?qi=glp_details&popup=1&item=532,12.172301,49.129478,DE
Auen-Eckweiler Startplatz,https://service.dhv.de/db2/details.php?qi=glp_details&popup=1&item=536,7.604881,49.839244,DE
Schwartenberg Startplatz Nord,https://service.dhv.de/db2/details.php?qi=glp_details&popup=1&item=539,13.465676,50.659609,DE
Meddersheim Startplatz,https://service.dhv.de/db2/details.php?qi=glp_details&popup=1&item=540,7.583569,49.778925,DE
Fürmannalm / Irlberg Anger Startplatz,https://service.dhv.de/db2/details.php?qi=glp_details&popup=1&item=542,12.840358,47.793063,DE
Heimatturm Colditz Übungshang,https://service.dhv.de/db2/details.php?qi=glp_details&popup=1&item=545,12.817655,51.116374,DE
Engleshof Startplatz,https://service.dhv.de/db2/details.php?qi=glp_details&popup=1&item=547,12.211465,49.595587,DE
Schillenberg/Alte Rieder Straße/Gschlatt Startplatz,https://service.dhv.de/db2/details.php?qi=glp_details&popup=1&item=548,10.619530,47.760993,DE
Osthang Herdorf Startplatz,https://service.dhv.de/db2/details.php?qi=glp_details&popup=1&item=550,7.934167,50.769444,DE
Nordwesthang Sassenroth Startplatz,https://service.dhv.de/db2/details.php?qi=glp_details&popup=1&item=551,7.929139,50.769750,DE
Gräfenthal Startplatz,https://service.dhv.de/db2/details.php?qi=glp_details&popup=1&item=553,11.332222,50.522500,DE
Zopten Startplatz,https://service.dhv.de/db2/details.php?qi=glp_details&popup=1&item=558,11.329436,50.517767,DE
Teufelsberg Startplatz,https://service.dhv.de/db2/details.php?qi=glp_details&popup=1&item=560,13.247023,52.502195,DE
Bastenberg Startplatz,https://service.dhv.de/db2/details.php?qi=glp_details&popup=1&item=561,9.323798,51.702838,DE
Südhang Wasserkuppe,https://service.dhv.de/db2/details.php?qi=glp_details&popup=1&item=565,9.937220,50.497350,DE
Stöckerkopf Startplatz,https://service.dhv.de/db2/details.php?qi=glp_details&popup=1&item=566,8.368341,48.495560,DE
Adelberg Startplatz,https://service.dhv.de/db2/details.php?qi=glp_details&popup=1&item=573,7.960167,49.216506,DE
Jägerberg Startplatz,https://service.dhv.de/db2/details.php?qi=glp_details&popup=1&item=574,11.619666,50.969782,DE
Schauinsland Startplatz Rotlache,https://service.dhv.de/db2/details.php?qi=glp_details&popup=1&item=575,7.889599,47.909744,DE
Möslehang Startplatz,https://service.dhv.de/db2/details.php?qi=glp_details&popup=1&item=579,8.058901,47.830789,DE
Heue / Bergalingen Startplatz,https://service.dhv.de/db2/details.php?qi=glp_details&popup=1&item=581,7.939124,47.619645,DE
Unterschwarzach Startplatz,https://service.dhv.de/db2/details.php?qi=glp_details&popup=1&item=582,11.713915,49.861632,DE
Frauenberg Startplatz Nordnordost,https://service.dhv.de/db2/details.php?qi=glp_details&popup=1&item=584,10.834442,51.377414,DE
Schloß Banz Startplatz,https://service.dhv.de/db2/details.php?qi=glp_details&popup=1&item=588,10.998366,50.134596,DE
Neukenroth Startplatz,https://service.dhv.de/db2/details.php?qi=glp_details&popup=1&item=589,11.269786,50.325750,DE
Eschlkam Startplatz,https://service.dhv.de/db2/details.php?qi=glp_details&popup=1&item=590,12.928591,49.292357,DE
Pig Mountain Startplatz,https://service.dhv.de/db2/details.php?qi=glp_details&popup=1&item=591,12.401247,49.012823,DE
Hundsberg Startplatz,https://service.dhv.de/db2/details.php?qi=glp_details&popup=1&item=592,9.410105,49.127093,DE
Stüppel Startplatz NW,https://service.dhv.de/db2/details.php?qi=glp_details&popup=1&item=595,8.429486,51.314312,DE
Wenholthausen Startplatz S/SW,https://service.dhv.de/db2/details.php?qi=glp_details&popup=1&item=596,8.189728,51.302837,DE
Meerfelder Maar Startplatz Süd,https://service.dhv.de/db2/details.php?qi=glp_details&popup=1&item=602,6.755991,50.106130,DE
Pröllerfeld / Tremmelhauserhöhe Übungshang,https://service.dhv.de/db2/details.php?qi=glp_details&popup=1&item=603,12.052903,49.051736,DE
Stormbruch - Hinterm Hagen Übungshang,https://service.dhv.de/db2/details.php?qi=glp_details&popup=1&item=604,8.712029,51.351817,DE
Auf dem unteren Mergesfeld Startplatz,https://service.dhv.de/db2/details.php?qi=glp_details&popup=1&item=605,7.787222,49.871944,DE
Heubach Übungshang,https://service.dhv.de/db2/details.php?qi=glp_details&popup=1&item=610,9.694190,50.382856,DE
Brauneck Startplatz Gipfel Nord,https://service.dhv.de/db2/details.php?qi=glp_details&popup=1&item=612,11.524472,47.664139,DE
Gipfelstation Nordwest,https://service.dhv.de/db2/details.php?qi=glp_details&popup=1&item=613,12.248248,47.747332,DE
Netphen Startplatz,https://service.dhv.de/db2/details.php?qi=glp_details&popup=1&item=614,8.078009,50.920323,DE
Kleinheppacher Kopf Startplatz,https://service.dhv.de/db2/details.php?qi=glp_details&popup=1&item=615,9.378129,48.833177,DE
Laber Startplatz östl. der Bergstation,https://service.dhv.de/db2/details.php?qi=glp_details&popup=1&item=616,11.103573,47.586274,DE
Bannholz - Kleingartach Startplatz,https://service.dhv.de/db2/details.php?qi=glp_details&popup=1&item=617,8.987599,49.098866,DE
Am Rammelsberg Nordwest-Startplatz,https://service.dhv.de/db2/details.php?qi=glp_details&popup=1&item=618,10.430875,51.889710,DE
Am Viechberg Startplatz 1,https://service.dhv.de/db2/details.php?qi=glp_details&popup=1&item=622,9.721162,48.990271,DE
Alter Gleisberg - Weststart unterhalb Waldkante Übungshang,https://service.dhv.de/db2/details.php?qi=glp_details&popup=1&item=623,11.692738,50.959180,DE
Sasbachwalden-Schloßberg Startplatz,https://service.dhv.de/db2/details.php?qi=glp_details&popup=1&item=626,8.152279,48.609582,DE
Buchberg Startplatz,https://service.dhv.de/db2/details.php?qi=glp_details&popup=1&item=627,9.882814,50.130132,DE
Weiherkuppe Startplatz,https://service.dhv.de/db2/details.php?qi=glp_details&popup=1&item=629,9.913833,50.511167,DE
Hittenkirchen Übungshang,https://service.dhv.de/db2/details.php?qi=glp_details&popup=1&item=633,12.342259,47.824890,DE
Butterberg Startplatz,https://service.dhv.de/db2/details.php?qi=glp_details&popup=1&item=634,10.574111,51.887917,DE
Am Geisberg Startplatz,https://service.dhv.de/db2/details.php?qi=glp_details&popup=1&item=636,8.770008,49.691176,DE
Niederrheinkogel - Halde Norddeutschland Übungshang,https://service.dhv.de/db2/details.php?qi=glp_details&popup=1&item=637,6.568333,51.471389,DE
Rivenich Startplatz,https://service.dhv.de/db2/details.php?qi=glp_details&popup=1&item=642,6.857845,49.869397,DE
Moos Startplatz,https://service.dhv.de/db2/details.php?qi=glp_details&popup=1&item=643,8.113638,48.462799,DE
Untere Kalle Startplatz,https://service.dhv.de/db2/details.php?qi=glp_details&popup=1&item=644,10.147461,47.546437,DE
Bachtel Schulungshang,https://service.dhv.de/db2/details.php?qi=glp_details&popup=1&item=646,10.286667,47.501944,DE
Fridingen (Bergsteig/Riesen) Startplatz,https://service.dhv.de/db2/details.php?qi=glp_details&popup=1&item=648,8.913656,48.018068,DE
Obermelbecke-Kerschlade Startplatz,https://service.dhv.de/db2/details.php?qi=glp_details&popup=1&item=649,8.044803,51.167423,DE
Tauchersreuth Startplatz,https://service.dhv.de/db2/details.php?qi=glp_details&popup=1&item=652,11.212500,49.547167,DE
Alter Steinbruch Startplatz,https://service.dhv.de/db2/details.php?qi=glp_details&popup=1&item=655,8.775973,49.695182,DE
Jenzig Startplatz Süd,https://service.dhv.de/db2/details.php?qi=glp_details&popup=1&item=657,11.633052,50.938848,DE
Mäusberg Startplatz,https://service.dhv.de/db2/details.php?qi=glp_details&popup=1&item=658,9.721699,49.990608,DE
Stettberg Startplatz,https://service.dhv.de/db2/details.php?qi=glp_details&popup=1&item=660,10.224556,48.587500,DE
Schmalzlalm Startplatz,https://service.dhv.de/db2/details.php?qi=glp_details&popup=1&item=661,12.453147,49.043514,DE
Saal-Rönkhausen Startplatz,https://service.dhv.de/db2/details.php?qi=glp_details&popup=1&item=668,7.957033,51.239449,DE
Althof (Rampe und Naturstartplatz),https://service.dhv.de/db2/details.php?qi=glp_details&popup=1&item=671,8.402500,48.823333,DE
Ostalb - Skipiste Langert Startplatz,https://service.dhv.de/db2/details.php?qi=glp_details&popup=1&item=672,10.078196,48.814833,DE
Spornreuth / Sommerberg Startplatz,https://service.dhv.de/db2/details.php?qi=glp_details&popup=1&item=674,12.372837,50.319134,DE
Finkenberg Startplatz,https://service.dhv.de/db2/details.php?qi=glp_details&popup=1&item=675,7.411324,50.582617,DE
Hohenneuffen West Startplatz,https://service.dhv.de/db2/details.php?qi=glp_details&popup=1&item=679,9.404452,48.549549,DE
Rauenstein Startplatz,https://service.dhv.de/db2/details.php?qi=glp_details&popup=1&item=682,11.042708,50.424678,DE
Leuchtenburg Startplatz,https://service.dhv.de/db2/details.php?qi=glp_details&popup=1&item=689,11.610455,50.800805,DE
Jägerkamp/Nagelspitz Startplatz,https://service.dhv.de/db2/details.php?qi=glp_details&popup=1&item=690,11.904030,47.679201,DE
Hockeroda Startplatz,https://service.dhv.de/db2/details.php?qi=glp_details&popup=1&item=691,11.452475,50.598684,DE
Habach Startplatz,https://service.dhv.de/db2/details.php?qi=glp_details&popup=1&item=692,11.279440,47.719762,DE
Donnersberg Startplatz,https://service.dhv.de/db2/details.php?qi=glp_details&popup=1&item=693,7.931260,49.634619,DE
Gangelsberg Startplatz,https://service.dhv.de/db2/details.php?qi=glp_details&popup=1&item=695,7.740576,49.792444,DE
Obermarsberg Startplatz,https://service.dhv.de/db2/details.php?qi=glp_details&popup=1&item=697,8.851000,51.441000,DE
Herzerberg Startplatz,https://service.dhv.de/db2/details.php?qi=glp_details&popup=1&item=700,7.308222,49.549500,DE
Ockfen/Bockstein Startplatz,https://service.dhv.de/db2/details.php?qi=glp_details&popup=1&item=701,6.595117,49.624142,DE
Hintereck Startplatz,https://service.dhv.de/db2/details.php?qi=glp_details&popup=1&item=702,8.124444,48.049167,DE
Wilnsdorf-Nord Startplatz,https://service.dhv.de/db2/details.php?qi=glp_details&popup=1&item=704,8.097237,50.859915,DE
Hünersedel Startplatz,https://service.dhv.de/db2/details.php?qi=glp_details&popup=1&item=709,7.963463,48.205244,DE
Ummerstadt Startplatz,https://service.dhv.de/db2/details.php?qi=glp_details&popup=1&item=710,10.794454,50.267179,DE
Förlenberg Startplatz,https://service.dhv.de/db2/details.php?qi=glp_details&popup=1&item=711,8.004517,49.191880,DE
Heuberg Startplatz,https://service.dhv.de/db2/details.php?qi=glp_details&popup=1&item=717,9.458928,50.068035,DE
Graach Startplatz,https://service.dhv.de/db2/details.php?qi=glp_details&popup=1&item=719,7.059056,49.944278,DE
Aitern Startplatz,https://service.dhv.de/db2/details.php?qi=glp_details&popup=1&item=723,7.898161,47.811350,DE
Egg/Happareute Startplatz,https://service.dhv.de/db2/details.php?qi=glp_details&popup=1&item=725,9.954952,47.626434,DE
Sommerberg Startplatz,https://service.dhv.de/db2/details.php?qi=glp_details&popup=1&item=727,8.534716,48.740356,DE
Erden Startplatz,https://service.dhv.de/db2/details.php?qi=glp_details&popup=1&item=728,7.017952,49.984903,DE
Harbatshofen Startplatz,https://service.dhv.de/db2/details.php?qi=glp_details&popup=1&item=733,9.992815,47.605396,DE
Hoher Bogen - Eschlkam Übungshang,https://service.dhv.de/db2/details.php?qi=glp_details&popup=1&item=737,12.952639,49.266965,DE
Kapf/Paradies Startplatz,https://service.dhv.de/db2/details.php?qi=glp_details&popup=1&item=739,10.001421,47.548407,DE
Salmaser Höhe/Salmas Startplatz,https://service.dhv.de/db2/details.php?qi=glp_details&popup=1&item=740,10.088946,47.569938,DE
Ronneburg die Hell (Übungshang),https://service.dhv.de/db2/details.php?qi=glp_details&popup=1&item=741,9.060556,50.236944,DE
Entenberg Startplatz,https://service.dhv.de/db2/details.php?qi=glp_details&popup=1&item=742,8.434168,50.917968,DE
Obere Tonhalde Startplatz,https://service.dhv.de/db2/details.php?qi=glp_details&popup=1&item=746,9.484111,48.360250,DE
Waldstetten/Skihütte Startplatz,https://service.dhv.de/db2/details.php?qi=glp_details&popup=1&item=749,9.814991,48.751838,DE
Weiler Startplatz,https://service.dhv.de/db2/details.php?qi=glp_details&popup=1&item=758,7.566983,49.805407,DE
Boos / Staudernheim Startplatz,https://service.dhv.de/db2/details.php?qi=glp_details&popup=1&item=759,7.714811,49.786397,DE
Fischbek Übungshang,https://service.dhv.de/db2/details.php?qi=glp_details&popup=1&item=761,9.845145,53.464075,DE
Lisberg Startplatz,https://service.dhv.de/db2/details.php?qi=glp_details&popup=1&item=765,10.735487,49.884957,DE
Bönighausen am Grotenberg Übungshang,https://service.dhv.de/db2/details.php?qi=glp_details&popup=1&item=769,8.741341,51.279206,DE
Tiefenbach Übungshang,https://service.dhv.de/db2/details.php?qi=glp_details&popup=1&item=774,13.381009,48.620241,DE
Balsberg Startplatz,https://service.dhv.de/db2/details.php?qi=glp_details&popup=1&item=782,12.446179,47.723678,DE
Frahelser Buckl Übungshang,https://service.dhv.de/db2/details.php?qi=glp_details&popup=1&item=783,13.034506,49.198952,DE
Wöllmannsbach Übungshang,https://service.dhv.de/db2/details.php?qi=glp_details&popup=1&item=784,12.052222,49.277222,DE
Voxbrunn Übungshang,https://service.dhv.de/db2/details.php?qi=glp_details&popup=1&item=786,12.047892,48.888844,DE
Kapfelberg Startplatz,https://service.dhv.de/db2/details.php?qi=glp_details&popup=1&item=787,11.975488,48.941208,DE
Heckerbugl Startplatz,https://service.dhv.de/db2/details.php?qi=glp_details&popup=1&item=788,11.893434,48.892040,DE
Seedorf Startplatz,https://service.dhv.de/db2/details.php?qi=glp_details&popup=1&item=790,12.083741,48.944866,DE
Küppchen - Lasserg Startplatz,https://service.dhv.de/db2/details.php?qi=glp_details&popup=1&item=795,7.384486,50.216843,DE
Burgen Hauptstartplatz,https://service.dhv.de/db2/details.php?qi=glp_details&popup=1&item=796,7.017176,49.876369,DE
Galgenberg Startplatz,https://service.dhv.de/db2/details.php?qi=glp_details&popup=1&item=797,6.740134,49.500507,DE
Gedeonseck Startplatz,https://service.dhv.de/db2/details.php?qi=glp_details&popup=1&item=800,7.572777,50.243747,DE
Hoferer Höhe Startplatz,https://service.dhv.de/db2/details.php?qi=glp_details&popup=1&item=802,13.077500,48.463611,DE
Fürstenberg Nordost Startplatz,https://service.dhv.de/db2/details.php?qi=glp_details&popup=1&item=809,8.565417,47.891111,DE
Im Ruhescheid Startplatz,https://service.dhv.de/db2/details.php?qi=glp_details&popup=1&item=813,7.701073,49.788468,DE
"Schulungsgelände Tegernsee, Schafstatt, Startplatz",https://service.dhv.de/db2/details.php?qi=glp_details&popup=1&item=817,11.758841,47.761749,DE
Am Kirschberg Übungshang,https://service.dhv.de/db2/details.php?qi=glp_details&popup=1&item=818,13.081799,51.135443,DE
Klosterreichenbach Startplatz,https://service.dhv.de/db2/details.php?qi=glp_details&popup=1&item=821,8.403210,48.522062,DE
Stettelberg Startplatz,https://service.dhv.de/db2/details.php?qi=glp_details&popup=1&item=823,9.075608,47.813500,DE
Im Theiswieschen - In der Heckwies Startplatz,https://service.dhv.de/db2/details.php?qi=glp_details&popup=1&item=825,7.188697,50.285718,DE
Geba Südwest Startplatz,https://service.dhv.de/db2/details.php?qi=glp_details&popup=1&item=832,10.255000,50.569167,DE
Hohenkarpfen Startplatz,https://service.dhv.de/db2/details.php?qi=glp_details&popup=1&item=834,8.717994,48.042881,DE
Wildhang Übungshang,https://service.dhv.de/db2/details.php?qi=glp_details&popup=1&item=835,8.895836,51.875034,DE
Valwiger Berg (Jeiersberg) Startplatz,https://service.dhv.de/db2/details.php?qi=glp_details&popup=1&item=836,7.226536,50.149131,DE
Laasan / Kunitz Übungshang,https://service.dhv.de/db2/details.php?qi=glp_details&popup=1&item=841,11.666793,50.950343,DE
Kella-Berg Startplatz,https://service.dhv.de/db2/details.php?qi=glp_details&popup=1&item=843,10.079815,51.243081,DE
Bühl Übungshang,https://service.dhv.de/db2/details.php?qi=glp_details&popup=1&item=844,11.973446,49.453957,DE
Wolfsschlucht Übungshang,https://service.dhv.de/db2/details.php?qi=glp_details&popup=1&item=845,11.866259,49.463456,DE
Schrattenbach Startplatz,https://service.dhv.de/db2/details.php?qi=glp_details&popup=1&item=853,10.297667,47.848389,DE
Reichenhausen Startplatz,https://service.dhv.de/db2/details.php?qi=glp_details&popup=1&item=854,10.126841,50.588658,DE
Oberaltenbernheim Übungshang,https://service.dhv.de/db2/details.php?qi=glp_details&popup=1&item=858,10.508294,49.462379,DE
Armutswiesen Übungshang Startplatz,https://service.dhv.de/db2/details.php?qi=glp_details&popup=1&item=859,9.699726,48.855376,DE
Dachstein Startplatz,https://service.dhv.de/db2/details.php?qi=glp_details&popup=1&item=863,10.176516,50.635458,DE
Humberg Startplatz,https://service.dhv.de/db2/details.php?qi=glp_details&popup=1&item=867,7.711233,49.768543,DE
Steinbruch Achenbach Startplatz,https://service.dhv.de/db2/details.php?qi=glp_details&popup=1&item=868,8.410490,50.868395,DE
Meistern -  Kienhalde Startplatz,https://service.dhv.de/db2/details.php?qi=glp_details&popup=1&item=869,8.552038,48.735592,DE
Wingertsberg Startplatz,https://service.dhv.de/db2/details.php?qi=glp_details&popup=1&item=870,7.674264,49.840161,DE
Altenbeuthen - Stausee Startplatz,https://service.dhv.de/db2/details.php?qi=glp_details&popup=1&item=876,11.593979,50.593503,DE
Zundelberg Startplatz,https://service.dhv.de/db2/details.php?qi=glp_details&popup=1&item=879,8.749151,48.054562,DE
Feldberg-Wiesenquelle Startplatz,https://service.dhv.de/db2/details.php?qi=glp_details&popup=1&item=880,8.024686,47.856668,DE
Wanfried - Aue Startplatz,https://service.dhv.de/db2/details.php?qi=glp_details&popup=1&item=888,10.130124,51.172200,DE
Skihang Hartenrod Startplatz,https://service.dhv.de/db2/details.php?qi=glp_details&popup=1&item=889,8.453979,50.748349,DE
Am Saalenweg Startplatz,https://service.dhv.de/db2/details.php?qi=glp_details&popup=1&item=898,9.191729,51.118134,DE
Roter Berg - Werneburg Startplatz,https://service.dhv.de/db2/details.php?qi=glp_details&popup=1&item=904,11.441111,50.635278,DE
Hönningen Startplatz Süd,https://service.dhv.de/db2/details.php?qi=glp_details&popup=1&item=909,6.947929,50.478656,DE
Haardskopf Startplatz,https://service.dhv.de/db2/details.php?qi=glp_details&popup=1&item=919,7.434912,50.558597,DE
Lautersheim Startplatz,https://service.dhv.de/db2/details.php?qi=glp_details&popup=1&item=920,8.106853,49.583971,DE
Höhenberg Startplatz,https://service.dhv.de/db2/details.php?qi=glp_details&popup=1&item=922,11.486944,49.268889,DE
Golan Höhe - Denklingen Startplatz,https://service.dhv.de/db2/details.php?qi=glp_details&popup=1&item=923,10.866723,47.903915,DE
Kirgel Startplatz,https://service.dhv.de/db2/details.php?qi=glp_details&popup=1&item=927,9.758466,48.994094,DE
Renhardsweiler Startplatz,https://service.dhv.de/db2/details.php?qi=glp_details&popup=1&item=933,9.570960,47.998055,DE
Riol Startplatz Erdrampe,https://service.dhv.de/db2/details.php?qi=glp_details&popup=1&item=941,6.800556,49.781278,DE
Calmont Startplatz,https://service.dhv.de/db2/details.php?qi=glp_details&popup=1&item=943,7.114872,50.106814,DE
Neidlingen Startplatz,https://service.dhv.de/db2/details.php?qi=glp_details&popup=1&item=951,9.593161,48.577474,DE
Breitenberg Startplatz Engele,https://service.dhv.de/db2/details.php?qi=glp_details&popup=1&item=952,10.556614,47.547697,DE
Wallberg Startplatz Hauptgipfel,https://service.dhv.de/db2/details.php?qi=glp_details&popup=1&item=953,11.796738,47.665857,DE
Beutnitz Übungshang 1,https://service.dhv.de/db2/details.php?qi=glp_details&popup=1&item=955,11.664562,50.964373,DE
Am Göbbelsberge Startplatz,https://service.dhv.de/db2/details.php?qi=glp_details&popup=1&item=957,9.053889,51.120833,DE
Wellen - Auf dem Schleifstein Startplatz,https://service.dhv.de/db2/details.php?qi=glp_details&popup=1&item=958,9.171229,51.155101,DE
Niederlibbach Startplatz,https://service.dhv.de/db2/details.php?qi=glp_details&popup=1&item=961,8.167305,50.201572,DE
"Ebersberg West-SP ""Oberes Gewand""",https://service.dhv.de/db2/details.php?qi=glp_details&popup=1&item=963,9.530253,48.936949,DE
Neuberg Startplatz,https://service.dhv.de/db2/details.php?qi=glp_details&popup=1&item=964,7.691824,49.766891,DE
Rothenberg Startplatz,https://service.dhv.de/db2/details.php?qi=glp_details&popup=1&item=965,11.355872,49.556983,DE
Hahnberg Startplatz,https://service.dhv.de/db2/details.php?qi=glp_details&popup=1&item=966,9.062261,51.103912,DE
Sponsheimer Berg Startplatz,https://service.dhv.de/db2/details.php?qi=glp_details&popup=1&item=971,7.891145,49.929732,DE
Vogtmaiers Kanzel Startplatz,https://service.dhv.de/db2/details.php?qi=glp_details&popup=1&item=973,8.260838,48.456893,DE
Rossbühl Startplatz,https://service.dhv.de/db2/details.php?qi=glp_details&popup=1&item=974,8.239123,48.486960,DE
Höllenberg Startplatz,https://service.dhv.de/db2/details.php?qi=glp_details&popup=1&item=976,7.888033,49.188302,DE
Scheffau Startplatz,https://service.dhv.de/db2/details.php?qi=glp_details&popup=1&item=978,13.063817,47.674375,DE
Buchberg Übungshang,https://service.dhv.de/db2/details.php?qi=glp_details&popup=1&item=984,11.743870,47.733407,DE
Schoden Startplatz,https://service.dhv.de/db2/details.php?qi=glp_details&popup=1&item=985,6.593778,49.640028,DE
Merkur Startplatz Nordost,https://service.dhv.de/db2/details.php?qi=glp_details&popup=1&item=987,8.281571,48.764663,DE
Skihang Wirtsberg Startplatz,https://service.dhv.de/db2/details.php?qi=glp_details&popup=1&item=996,9.993374,48.746752,DE
Hubertushütte Geisingen Startplatz,https://service.dhv.de/db2/details.php?qi=glp_details&popup=1&item=997,8.632778,47.943889,DE
Heinsheim Startplatz,https://service.dhv.de/db2/details.php?qi=glp_details&popup=1&item=998,9.146608,49.269002,DE
Vor der Wesenbach Startplatz,https://service.dhv.de/db2/details.php?qi=glp_details&popup=1&item=1000,7.707639,49.751993,DE
Oberweiler Startplatz,https://service.dhv.de/db2/details.php?qi=glp_details&popup=1&item=1001,7.719183,49.770511,DE
Geba - Seeba Süd Startplatz,https://service.dhv.de/db2/details.php?qi=glp_details&popup=1&item=1002,10.294704,50.578250,DE
Wittelsbacher Turm Startplatz,https://service.dhv.de/db2/details.php?qi=glp_details&popup=1&item=1003,10.075557,50.163113,DE
Mühlenfeld Landeplatz (Birkenbeul),https://service.dhv.de/db2/details.php?qi=glp_details&popup=1&item=1004,7.610000,50.744444,DE
Michelsberg Startplatz,https://service.dhv.de/db2/details.php?qi=glp_details&popup=1&item=1007,10.160583,50.251616,DE
Neuwied-Rodenbach Startplatz,https://service.dhv.de/db2/details.php?qi=glp_details&popup=1&item=1009,7.438388,50.460646,DE
Am Hoppern Ritzhagen Startplatz,https://service.dhv.de/db2/details.php?qi=glp_details&popup=1&item=1018,8.590857,51.295149,DE
An der Schieferkuhle Übungshang,https://service.dhv.de/db2/details.php?qi=glp_details&popup=1&item=1019,8.651111,51.318056,DE
Kandahar-Express - Kreuzjoch Startplatz,https://service.dhv.de/db2/details.php?qi=glp_details&popup=1&item=1023,11.079917,47.452778,DE
Fichtelberg Startplatz,https://service.dhv.de/db2/details.php?qi=glp_details&popup=1&item=1025,12.952366,50.423120,DE
Amihang Übungshang,https://service.dhv.de/db2/details.php?qi=glp_details&popup=1&item=1026,11.093080,47.480617,DE
Tiertalberg Startplatz,https://service.dhv.de/db2/details.php?qi=glp_details&popup=1&item=1033,9.837900,49.894333,DE
Gänsberg Startplatz,https://service.dhv.de/db2/details.php?qi=glp_details&popup=1&item=1037,9.587376,48.818685,DE
Roschlaub/Obstgarten Startplatz,https://service.dhv.de/db2/details.php?qi=glp_details&popup=1&item=1038,11.030194,50.014361,DE
Hörnle Startplatz,https://service.dhv.de/db2/details.php?qi=glp_details&popup=1&item=1042,11.053938,47.645103,DE
Ascheloh-Hermannsweg Startplatz,https://service.dhv.de/db2/details.php?qi=glp_details&popup=1&item=1045,8.409833,52.050751,DE
Schäfersfeld Startplatz,https://service.dhv.de/db2/details.php?qi=glp_details&popup=1&item=1046,8.152043,48.435706,DE
Bausenberg Startplatz,https://service.dhv.de/db2/details.php?qi=glp_details&popup=1&item=1049,7.222427,50.464785,DE
Bad Salzig Startplatz,https://service.dhv.de/db2/details.php?qi=glp_details&popup=1&item=1050,7.615242,50.193859,DE
Tannschach Startplatz,https://service.dhv.de/db2/details.php?qi=glp_details&popup=1&item=1052,8.404412,48.821825,DE
Großer Kopf / Römerturm Startplatz,https://service.dhv.de/db2/details.php?qi=glp_details&popup=1&item=1055,7.756472,50.369861,DE
Königsheide Startplatz,https://service.dhv.de/db2/details.php?qi=glp_details&popup=1&item=1056,11.770154,49.998137,DE
Im Borngrund Übungshang,https://service.dhv.de/db2/details.php?qi=glp_details&popup=1&item=1058,7.724165,50.215371,DE
Wittekindsburg Startplatz,https://service.dhv.de/db2/details.php?qi=glp_details&popup=1&item=1059,8.883905,52.246925,DE
Irgersdorf Startplatz,https://service.dhv.de/db2/details.php?qi=glp_details&popup=1&item=1064,14.384372,51.116661,DE
Henneberg Startplatz,https://service.dhv.de/db2/details.php?qi=glp_details&popup=1&item=1066,10.340366,50.486115,DE
Blättersberg Startplatz,https://service.dhv.de/db2/details.php?qi=glp_details&popup=1&item=1067,8.070074,49.265962,DE
Fluggebiet Todtnau Startplatz Silberberg,https://service.dhv.de/db2/details.php?qi=glp_details&popup=1&item=1076,7.993156,47.838136,DE
Reichenbach Startplatz,https://service.dhv.de/db2/details.php?qi=glp_details&popup=1&item=1078,8.374722,50.277778,DE
Hohe Hardt Startplatz,https://service.dhv.de/db2/details.php?qi=glp_details&popup=1&item=1079,7.723333,50.860833,DE
Aussichtswiese Startplatz,https://service.dhv.de/db2/details.php?qi=glp_details&popup=1&item=1080,9.083195,49.392238,DE
Pig Mountain Übungshang,https://service.dhv.de/db2/details.php?qi=glp_details&popup=1&item=1081,12.399144,49.013864,DE
Hundsbach Startplatz,https://service.dhv.de/db2/details.php?qi=glp_details&popup=1&item=1083,9.871389,50.018889,DE
Königstuhl Startplatz,https://service.dhv.de/db2/details.php?qi=glp_details&popup=1&item=1084,8.726803,49.403929,DE
Nassauer Berg Startplatz,https://service.dhv.de/db2/details.php?qi=glp_details&popup=1&item=1085,7.803706,50.305778,DE
Weikersheim Startplatz,https://service.dhv.de/db2/details.php?qi=glp_details&popup=1&item=1086,9.888382,49.483231,DE
Bergehalde Ensdorf Startplatz,https://service.dhv.de/db2/details.php?qi=glp_details&popup=1&item=1090,6.785388,49.317031,DE
Hohenneuffen - Nord Startplatz,https://service.dhv.de/db2/details.php?qi=glp_details&popup=1&item=1091,9.404682,48.556713,DE
Auf dem Wakenfelde Startplatz,https://service.dhv.de/db2/details.php?qi=glp_details&popup=1&item=1092,8.624740,51.289164,DE
Am kleinen Holze Startplatz,https://service.dhv.de/db2/details.php?qi=glp_details&popup=1&item=1093,8.596967,51.287783,DE
Am Knippe Übungsgelände,https://service.dhv.de/db2/details.php?qi=glp_details&popup=1&item=1096,8.601050,51.299416,DE
Omerskopf Startplatz,https://service.dhv.de/db2/details.php?qi=glp_details&popup=1&item=1097,8.171511,48.640750,DE
Heimborn-Knabenberg Übungshang,https://service.dhv.de/db2/details.php?qi=glp_details&popup=1&item=1098,7.772222,50.714444,DE
Kausen Übungshang,https://service.dhv.de/db2/details.php?qi=glp_details&popup=1&item=1100,7.869229,50.738298,DE
Tegelberg SP Bergstation Tegelbergbahn,https://service.dhv.de/db2/details.php?qi=glp_details&popup=1&item=1101,10.779857,47.559851,DE
Brandleiten Übungshang,https://service.dhv.de/db2/details.php?qi=glp_details&popup=1&item=1106,11.389389,47.793452,DE
Schulungsgelände Heuberger-Kreuz,https://service.dhv.de/db2/details.php?qi=glp_details&popup=1&item=1108,8.800883,48.119133,DE
Bruchhauser Steine Startplatz Südwest (SP 1),https://service.dhv.de/db2/details.php?qi=glp_details&popup=1&item=1110,8.544965,51.318167,DE
Blankenhain Übungshang,https://service.dhv.de/db2/details.php?qi=glp_details&popup=1&item=1122,11.347546,50.846296,DE
Weinkopf Startplatz,https://service.dhv.de/db2/details.php?qi=glp_details&popup=1&item=1124,9.292245,51.024715,DE
Krautheim Startplatz,https://service.dhv.de/db2/details.php?qi=glp_details&popup=1&item=1125,9.649214,49.395180,DE
Rebberg,https://service.dhv.de/db2/details.php?qi=glp_details&popup=1&item=1128,8.968234,47.767772,DE
Hockenberg Startplatz,https://service.dhv.de/db2/details.php?qi=glp_details&popup=1&item=1129,9.488196,49.606816,DE
Kahle Pön Startplatz,https://service.dhv.de/db2/details.php?qi=glp_details&popup=1&item=1130,8.672054,51.261834,DE
Obere Rieth Startplatz,https://service.dhv.de/db2/details.php?qi=glp_details&popup=1&item=1134,8.802713,49.045151,DE
Hörnle / Jagsthausen Startplatz,https://service.dhv.de/db2/details.php?qi=glp_details&popup=1&item=1147,9.437049,49.313728,DE
Reichental Startplatz,https://service.dhv.de/db2/details.php?qi=glp_details&popup=1&item=1150,8.423654,48.727421,DE
Sandkopf Startplatz,https://service.dhv.de/db2/details.php?qi=glp_details&popup=1&item=1152,8.232828,48.496489,DE
Laucha Westhang Startplatz,https://service.dhv.de/db2/details.php?qi=glp_details&popup=1&item=1157,11.686820,51.247270,DE
Weingartshälden Startplatz,https://service.dhv.de/db2/details.php?qi=glp_details&popup=1&item=1158,9.399562,49.324233,DE
Erbach-Erlenbach Startplatz West,https://service.dhv.de/db2/details.php?qi=glp_details&popup=1&item=1159,9.019694,49.645006,DE
Hochfelln Oststart,https://service.dhv.de/db2/details.php?qi=glp_details&popup=1&item=1160,12.559551,47.761675,DE
Osterbuchberg Übungshang,https://service.dhv.de/db2/details.php?qi=glp_details&popup=1&item=1163,12.520833,47.804444,DE
Moltkefelsen Startplatz,https://service.dhv.de/db2/details.php?qi=glp_details&popup=1&item=1167,7.941389,49.620556,DE
Startplatz Kandel (Kandel-West und Rampe),https://service.dhv.de/db2/details.php?qi=glp_details&popup=1&item=1169,8.015234,48.065232,DE
Obermaubach Startplatz,https://service.dhv.de/db2/details.php?qi=glp_details&popup=1&item=1176,6.450412,50.713993,DE
Sonnenhang Startplatz,https://service.dhv.de/db2/details.php?qi=glp_details&popup=1&item=1179,8.581389,51.291944,DE
Stohl,https://service.dhv.de/db2/details.php?qi=glp_details&popup=1&item=1184,10.150423,54.477213,DE
Gadern-Höhenweg Startplatz,https://service.dhv.de/db2/details.php?qi=glp_details&popup=1&item=1186,8.804684,49.582115,DE
Oppenau Nordost / Ibacher Holzplatz,https://service.dhv.de/db2/details.php?qi=glp_details&popup=1&item=1193,8.147113,48.447550,DE
Oberkochen Startplatz,https://service.dhv.de/db2/details.php?qi=glp_details&popup=1&item=1195,10.090847,48.780807,DE
Dieberg Startplatz,https://service.dhv.de/db2/details.php?qi=glp_details&popup=1&item=1196,12.867436,49.328688,DE
Vogelsang West Startplatz,https://service.dhv.de/db2/details.php?qi=glp_details&popup=1&item=1198,12.035372,47.665260,DE
Choralpe Startplatz 1,https://service.dhv.de/db2/details.php?qi=glp_details&popup=1&item=1208,12.243973,47.418789,AT
Krunkelbachhütte / Spießhorn,https://service.dhv.de/db2/details.php?qi=glp_details&popup=1&item=1209,8.033838,47.826900,DE
Übungshang Hartenstein,https://service.dhv.de/db2/details.php?qi=glp_details&popup=1&item=1214,12.679722,50.678000,DE
Rank / Modellflieger,https://service.dhv.de/db2/details.php?qi=glp_details&popup=1&item=1216,8.034954,47.817304,DE
Veitsberg Startplatz,https://service.dhv.de/db2/details.php?qi=glp_details&popup=1&item=1218,11.000533,50.063283,DE
Diedamskopf Startplatz 1 Gipfel,https://service.dhv.de/db2/details.php?qi=glp_details&popup=1&item=1219,10.025917,47.346222,AT
Niedere - Andelsbuch Startplatz,https://service.dhv.de/db2/details.php?qi=glp_details&popup=1&item=1220,9.938500,47.403472,AT
Startplatz Bezau 2,https://service.dhv.de/db2/details.php?qi=glp_details&popup=1&item=1221,9.944306,47.398833,AT
Le Treh Startplatz 2,https://service.dhv.de/db2/details.php?qi=glp_details&popup=1&item=1222,7.014918,47.926288,FR
Urphar Startplatz Nordwest,https://service.dhv.de/db2/details.php?qi=glp_details&popup=1&item=1223,9.564550,49.741433,DE
Dertingen Startplatz,https://service.dhv.de/db2/details.php?qi=glp_details&popup=1&item=1224,9.616153,49.772222,DE
Wolfsteinberg Startplatz,https://service.dhv.de/db2/details.php?qi=glp_details&popup=1&item=1227,11.491575,49.290845,DE
Watles Startplatz 3,https://service.dhv.de/db2/details.php?qi=glp_details&popup=1&item=1228,10.485064,46.718961,IT
Speikboden Startplatz 1,https://service.dhv.de/db2/details.php?qi=glp_details&popup=1&item=1231,11.903303,46.915183,IT
Ahornach Startplatz,https://service.dhv.de/db2/details.php?qi=glp_details&popup=1&item=1232,11.967673,46.926044,IT
Gais Startplatz,https://service.dhv.de/db2/details.php?qi=glp_details&popup=1&item=1233,11.974111,46.849611,IT
Pfalzen Startplatz,https://service.dhv.de/db2/details.php?qi=glp_details&popup=1&item=1234,11.872573,46.830941,IT
Kronplatz Startplatz 5,https://service.dhv.de/db2/details.php?qi=glp_details&popup=1&item=1235,11.959614,46.739539,IT
Gitschberg Startplatz 3,https://service.dhv.de/db2/details.php?qi=glp_details&popup=1&item=1236,11.688552,46.854439,IT
Rodeneck Startplatz,https://service.dhv.de/db2/details.php?qi=glp_details&popup=1&item=1237,11.718553,46.789647,IT
Helm Startplatz 2,https://service.dhv.de/db2/details.php?qi=glp_details&popup=1&item=1238,12.374228,46.715986,IT
Col Rodella Startplatz 3,https://service.dhv.de/db2/details.php?qi=glp_details&popup=1&item=1239,11.750135,46.494936,IT
La Lokomotiva Startplatz 1,https://service.dhv.de/db2/details.php?qi=glp_details&popup=1&item=1240,11.771806,46.507833,IT
Sellapass Startplatz,https://service.dhv.de/db2/details.php?qi=glp_details&popup=1&item=1241,11.768139,46.509639,IT
Belvedere Startplatz 2,https://service.dhv.de/db2/details.php?qi=glp_details&popup=1&item=1242,11.801906,46.474211,IT
Neunerköpfle Startplatz 1,https://service.dhv.de/db2/details.php?qi=glp_details&popup=1&item=1243,10.541891,47.482518,AT
Hahnenkamm Startplatz 1,https://service.dhv.de/db2/details.php?qi=glp_details&popup=1&item=1244,10.640795,47.476405,AT
Säntis Startplatz,https://service.dhv.de/db2/details.php?qi=glp_details&popup=1&item=1245,9.347563,47.245918,CH
Ebenalp Startplatz 3,https://service.dhv.de/db2/details.php?qi=glp_details&popup=1&item=1246,9.413019,47.283341,CH
Hoher Kasten Startplatz 4,https://service.dhv.de/db2/details.php?qi=glp_details&popup=1&item=1247,9.487972,47.287806,CH
Kronberg Startplatz 2,https://service.dhv.de/db2/details.php?qi=glp_details&popup=1&item=1248,9.328798,47.291219,CH
Tschiernock Startplatz 1,https://service.dhv.de/db2/details.php?qi=glp_details&popup=1&item=1249,13.552247,46.858452,AT
Goldeck Startplatz 1,https://service.dhv.de/db2/details.php?qi=glp_details&popup=1&item=1250,13.458349,46.758871,AT
Gerlitzen Startplatz 1,https://service.dhv.de/db2/details.php?qi=glp_details&popup=1&item=1251,13.913917,46.692417,AT
Radsberg Startplatz,https://service.dhv.de/db2/details.php?qi=glp_details&popup=1&item=1252,14.402389,46.572583,AT
Glaiten Startplatz,https://service.dhv.de/db2/details.php?qi=glp_details&popup=1&item=1253,11.242554,46.826008,IT
Hirzer Startplatz 2,https://service.dhv.de/db2/details.php?qi=glp_details&popup=1&item=1254,11.252167,46.735389,IT
Hochmut Startplatz,https://service.dhv.de/db2/details.php?qi=glp_details&popup=1&item=1255,11.131188,46.701734,IT
Taser Alm Startplatz,https://service.dhv.de/db2/details.php?qi=glp_details&popup=1&item=1256,11.222222,46.706389,IT
Vigiljoch Startplatz,https://service.dhv.de/db2/details.php?qi=glp_details&popup=1&item=1257,11.117907,46.624419,IT
Thurntaler Startplatz 1,https://service.dhv.de/db2/details.php?qi=glp_details&popup=1&item=1260,12.388800,46.771983,AT
Plaine-Joux Startplatz,https://service.dhv.de/db2/details.php?qi=glp_details&popup=1&item=1261,6.739472,45.949556,FR
Mieussy Startplatz 1,https://service.dhv.de/db2/details.php?qi=glp_details&popup=1&item=1262,6.547664,46.145239,FR
Le Saix Startplatz,https://service.dhv.de/db2/details.php?qi=glp_details&popup=1&item=1263,6.697605,46.053697,FR
Col de Forclaz Startplatz GS 1,https://service.dhv.de/db2/details.php?qi=glp_details&popup=1&item=1264,6.246972,45.814145,FR
Le Brèvent Startplatz,https://service.dhv.de/db2/details.php?qi=glp_details&popup=1&item=1265,6.851236,45.936557,FR
Wildkogel Startplatz 3,https://service.dhv.de/db2/details.php?qi=glp_details&popup=1&item=1266,12.287092,47.281238,AT
Entscharn Startplatz,https://service.dhv.de/db2/details.php?qi=glp_details&popup=1&item=1267,12.342417,47.280556,AT
Hollersbach Startplatz,https://service.dhv.de/db2/details.php?qi=glp_details&popup=1&item=1268,12.427417,47.265167,AT
Schmittenhöhe Startplatz 2,https://service.dhv.de/db2/details.php?qi=glp_details&popup=1&item=1269,12.737151,47.328458,AT
Saint-Geniez Startplatz 3,https://service.dhv.de/db2/details.php?qi=glp_details&popup=1&item=1270,6.070131,44.253100,FR
Mont Colombis Startplatz,https://service.dhv.de/db2/details.php?qi=glp_details&popup=1&item=1271,6.216062,44.492487,FR
Bergies Startplatz 1,https://service.dhv.de/db2/details.php?qi=glp_details&popup=1&item=1272,5.510328,44.203111,FR
Buc Startplatz 2,https://service.dhv.de/db2/details.php?qi=glp_details&popup=1&item=1273,5.477503,44.207175,FR
Mison Startplatz,https://service.dhv.de/db2/details.php?qi=glp_details&popup=1&item=1274,5.837139,44.278111,FR
Col du Sapenay Startplatz HG,https://service.dhv.de/db2/details.php?qi=glp_details&popup=1&item=1275,5.864281,45.811039,FR
Le Revard Startplatz 2,https://service.dhv.de/db2/details.php?qi=glp_details&popup=1&item=1276,5.975631,45.683192,FR
Montlambert Startplatz,https://service.dhv.de/db2/details.php?qi=glp_details&popup=1&item=1277,6.104569,45.553133,FR
Chamoux Startplatz,https://service.dhv.de/db2/details.php?qi=glp_details&popup=1&item=1278,6.252680,45.529441,FR
St. Hilaire Startplatz 4,https://service.dhv.de/db2/details.php?qi=glp_details&popup=1&item=1279,5.872267,45.314031,FR
Brändlen Startplatz 1,https://service.dhv.de/db2/details.php?qi=glp_details&popup=1&item=1280,8.409694,46.904889,CH
Brunni Startplatz 3,https://service.dhv.de/db2/details.php?qi=glp_details&popup=1&item=1281,8.414972,46.841028,CH
Eggbergen Startplatz 1,https://service.dhv.de/db2/details.php?qi=glp_details&popup=1&item=1282,8.651750,46.903667,CH
Fürenalp Startplatz,https://service.dhv.de/db2/details.php?qi=glp_details&popup=1&item=1283,8.465694,46.805667,CH
Niederbauen Startplatz,https://service.dhv.de/db2/details.php?qi=glp_details&popup=1&item=1284,8.536444,46.946778,CH
Schrina Startplatz,https://service.dhv.de/db2/details.php?qi=glp_details&popup=1&item=1285,9.268126,47.142197,CH
Stelserberg Startplatz,https://service.dhv.de/db2/details.php?qi=glp_details&popup=1&item=1286,9.724056,46.962028,CH
Wirzweli Startplatz 4,https://service.dhv.de/db2/details.php?qi=glp_details&popup=1&item=1287,8.365445,46.902431,CH
Büelen Startplatz,https://service.dhv.de/db2/details.php?qi=glp_details&popup=1&item=1288,8.365563,46.880959,CH
Urmiberg Startplatz,https://service.dhv.de/db2/details.php?qi=glp_details&popup=1&item=1289,8.590053,47.011908,CH
Elm Startplatz 2,https://service.dhv.de/db2/details.php?qi=glp_details&popup=1&item=1290,9.133142,46.933411,CH
Schönhalden Startplatz,https://service.dhv.de/db2/details.php?qi=glp_details&popup=1&item=1291,9.334614,47.060497,CH
Fanas Startplatz 1,https://service.dhv.de/db2/details.php?qi=glp_details&popup=1&item=1292,9.697653,47.011772,CH
Pilatus Startplatz 1,https://service.dhv.de/db2/details.php?qi=glp_details&popup=1&item=1293,8.255174,46.979385,CH
Wissenberg Startplatz,https://service.dhv.de/db2/details.php?qi=glp_details&popup=1&item=1294,9.177686,46.968128,CH
Haldi Startplatz,https://service.dhv.de/db2/details.php?qi=glp_details&popup=1&item=1296,8.676525,46.861447,CH
Pizol Startplatz 1,https://service.dhv.de/db2/details.php?qi=glp_details&popup=1&item=1297,9.436822,46.979822,CH
Gaisberg Startplatz 3,https://service.dhv.de/db2/details.php?qi=glp_details&popup=1&item=1298,13.113942,47.804883,AT
Perler Startplatz,https://service.dhv.de/db2/details.php?qi=glp_details&popup=1&item=1299,11.845987,47.200320,AT
Melchboden Startplatz 2,https://service.dhv.de/db2/details.php?qi=glp_details&popup=1&item=1300,11.823070,47.219415,AT
Penken Startplatz,https://service.dhv.de/db2/details.php?qi=glp_details&popup=1&item=1301,11.816697,47.176222,AT
Finkenberg Startplatz 2,https://service.dhv.de/db2/details.php?qi=glp_details&popup=1&item=1302,11.799000,47.169049,AT
Alkus Startplatz,https://service.dhv.de/db2/details.php?qi=glp_details&popup=1&item=1303,12.702167,46.875361,AT
Elfer Startplatz,https://service.dhv.de/db2/details.php?qi=glp_details&popup=1&item=1304,11.323621,47.097635,AT
Emberger Alm Startplatz 2,https://service.dhv.de/db2/details.php?qi=glp_details&popup=1&item=1305,13.149605,46.776861,AT
Greifenburg Startplatz,https://service.dhv.de/db2/details.php?qi=glp_details&popup=1&item=1306,13.201583,46.761189,AT
Fulseck Startplatz 1,https://service.dhv.de/db2/details.php?qi=glp_details&popup=1&item=1307,13.148006,47.234300,AT
Göriach Startplatz,https://service.dhv.de/db2/details.php?qi=glp_details&popup=1&item=1308,13.399722,46.861494,AT
Hohe Salve Startplatz 1,https://service.dhv.de/db2/details.php?qi=glp_details&popup=1&item=1309,12.202538,47.464166,AT
Unterberghorn Startplatz 3,https://service.dhv.de/db2/details.php?qi=glp_details&popup=1&item=1311,12.435933,47.626251,AT
Kollnig Startplatz,https://service.dhv.de/db2/details.php?qi=glp_details&popup=1&item=1312,12.789333,46.851472,AT
Markbachjoch Startplatz 3,https://service.dhv.de/db2/details.php?qi=glp_details&popup=1&item=1313,12.070442,47.425833,AT
Michaelerberg Startplatz,https://service.dhv.de/db2/details.php?qi=glp_details&popup=1&item=1314,13.893694,47.411361,AT
Planai Startplatz 3,https://service.dhv.de/db2/details.php?qi=glp_details&popup=1&item=1315,13.724083,47.371750,AT
Stoderzinken Startplatz 1,https://service.dhv.de/db2/details.php?qi=glp_details&popup=1&item=1316,13.827694,47.458806,AT
Stubnerkogel Startplatz 1,https://service.dhv.de/db2/details.php?qi=glp_details&popup=1&item=1317,13.099710,47.113797,AT
Riesner Alm Startplatz,https://service.dhv.de/db2/details.php?qi=glp_details&popup=1&item=1319,14.091833,47.368325,AT
Untersberg Startplatz 1,https://service.dhv.de/db2/details.php?qi=glp_details&popup=1&item=1322,13.007598,47.722073,AT
Gruberleiten Übungshang Startplatz,https://service.dhv.de/db2/details.php?qi=glp_details&popup=1&item=1323,13.667035,47.425445,AT
Hauser Kaibling Startplatz 3,https://service.dhv.de/db2/details.php?qi=glp_details&popup=1&item=1324,13.778824,47.374374,AT
Hochstein Startplatz,https://service.dhv.de/db2/details.php?qi=glp_details&popup=1&item=1326,12.708006,46.818388,AT
Zettersfeld Startplatz,https://service.dhv.de/db2/details.php?qi=glp_details&popup=1&item=1328,12.788056,46.874778,AT
Liezen Startplatz,https://service.dhv.de/db2/details.php?qi=glp_details&popup=1&item=1329,14.232101,47.581968,AT
Hochwurzen Startplatz 1,https://service.dhv.de/db2/details.php?qi=glp_details&popup=1&item=1330,13.638961,47.360008,AT
Härmelekopf Startplatz 1,https://service.dhv.de/db2/details.php?qi=glp_details&popup=1&item=1331,11.227153,47.328927,AT
Gschwandtkopf Startplatz,https://service.dhv.de/db2/details.php?qi=glp_details&popup=1&item=1332,11.178632,47.315377,AT
Gaislachkogel Startplatz 1,https://service.dhv.de/db2/details.php?qi=glp_details&popup=1&item=1334,10.981458,46.954192,AT
Spieljoch Startplatz 2,https://service.dhv.de/db2/details.php?qi=glp_details&popup=1&item=1335,11.791392,47.324633,AT
La Longeagne Startplatz 2,https://service.dhv.de/db2/details.php?qi=glp_details&popup=1&item=1336,5.701861,44.550540,FR
Chabre Startplatz 2,https://service.dhv.de/db2/details.php?qi=glp_details&popup=1&item=1338,5.765833,44.298333,FR
Le Hochstein Startplatz,https://service.dhv.de/db2/details.php?qi=glp_details&popup=1&item=1339,7.025972,47.887389,FR
Saint-Vincent-Les-Forts (St. Vincent) Startplatz,https://service.dhv.de/db2/details.php?qi=glp_details&popup=1&item=1340,6.371592,44.443286,FR
Gustiberg Startplatz,https://service.dhv.de/db2/details.php?qi=glp_details&popup=1&item=1341,6.934358,47.893708,FR
Monte Avena Startplatz,https://service.dhv.de/db2/details.php?qi=glp_details&popup=1&item=1342,11.826353,46.029731,IT
Col Alto Startplatz,https://service.dhv.de/db2/details.php?qi=glp_details&popup=1&item=1343,11.886653,46.552328,IT
St. Martin Startplatz,https://service.dhv.de/db2/details.php?qi=glp_details&popup=1&item=1344,10.853664,46.638422,IT
Rosengarten Startplatz,https://service.dhv.de/db2/details.php?qi=glp_details&popup=1&item=1345,11.615278,46.415256,IT
Misurina Startplatz,https://service.dhv.de/db2/details.php?qi=glp_details&popup=1&item=1348,12.291770,46.612378,IT
Sonnenberg Startplatz,https://service.dhv.de/db2/details.php?qi=glp_details&popup=1&item=1349,10.984103,46.658742,IT
Schluderns Startplatz,https://service.dhv.de/db2/details.php?qi=glp_details&popup=1&item=1352,10.585643,46.685678,IT
Spitzbühl Startplatz,https://service.dhv.de/db2/details.php?qi=glp_details&popup=1&item=1353,11.599583,46.529472,IT
Martele Startplatz,https://service.dhv.de/db2/details.php?qi=glp_details&popup=1&item=1357,12.942167,46.880306,AT
Rottenstein Startplatz,https://service.dhv.de/db2/details.php?qi=glp_details&popup=1&item=1358,13.230569,46.768144,AT
Le Drumont Startplatz,https://service.dhv.de/db2/details.php?qi=glp_details&popup=1&item=1359,6.919091,47.898485,FR
Schöckel Startplatz 1,https://service.dhv.de/db2/details.php?qi=glp_details&popup=1&item=1361,15.460000,47.198333,AT
Gelderkogel Startplatz,https://service.dhv.de/db2/details.php?qi=glp_details&popup=1&item=1362,15.478889,47.303889,AT
Teichalm Startplatz,https://service.dhv.de/db2/details.php?qi=glp_details&popup=1&item=1363,15.481389,47.358056,AT
Kulm Startplatz 1,https://service.dhv.de/db2/details.php?qi=glp_details&popup=1&item=1364,15.762055,47.228151,AT
Hohe Wand Startplatz 1,https://service.dhv.de/db2/details.php?qi=glp_details&popup=1&item=1365,16.041627,47.829378,AT
Große Scheibe Startplatz,https://service.dhv.de/db2/details.php?qi=glp_details&popup=1&item=1366,15.689583,47.634861,AT
Rax Startplatz 2,https://service.dhv.de/db2/details.php?qi=glp_details&popup=1&item=1367,15.762409,47.713371,AT
Sonnwendstein Startplatz 1,https://service.dhv.de/db2/details.php?qi=glp_details&popup=1&item=1368,15.858078,47.622537,AT
Messnerin Startplatz 1,https://service.dhv.de/db2/details.php?qi=glp_details&popup=1&item=1369,15.082898,47.558660,AT
Polster Startplatz 1,https://service.dhv.de/db2/details.php?qi=glp_details&popup=1&item=1370,14.961013,47.532419,AT
Bürgeralm Startplatz 1,https://service.dhv.de/db2/details.php?qi=glp_details&popup=1&item=1371,15.224476,47.577669,AT
Gemeindealpe Startplatz 2,https://service.dhv.de/db2/details.php?qi=glp_details&popup=1&item=1372,15.247242,47.810842,AT
Muckenkogel Startplatz 1,https://service.dhv.de/db2/details.php?qi=glp_details&popup=1&item=1374,15.610056,47.971333,AT
Herndleck Startplatz,https://service.dhv.de/db2/details.php?qi=glp_details&popup=1&item=1375,14.328366,47.928345,AT
Schoberstein Start-/Landeplatz Südost,https://service.dhv.de/db2/details.php?qi=glp_details&popup=1&item=1376,14.322389,47.905000,AT
Hirschwaldstein Startplatz 2,https://service.dhv.de/db2/details.php?qi=glp_details&popup=1&item=1377,14.163458,47.886547,AT
Schnabelberg Startplatz,https://service.dhv.de/db2/details.php?qi=glp_details&popup=1&item=1378,14.738073,47.938801,AT
Hutterer Höß Startplatz 1,https://service.dhv.de/db2/details.php?qi=glp_details&popup=1&item=1379,14.170218,47.664986,AT
Kleinerberg Startplatz 1,https://service.dhv.de/db2/details.php?qi=glp_details&popup=1&item=1380,14.366115,47.734078,AT
Speiereck Startplatz 2,https://service.dhv.de/db2/details.php?qi=glp_details&popup=1&item=1381,13.624667,47.127257,AT
Aineck Startplatz,https://service.dhv.de/db2/details.php?qi=glp_details&popup=1&item=1382,13.637064,47.057008,AT
Almkopf Startplatz,https://service.dhv.de/db2/details.php?qi=glp_details&popup=1&item=1383,10.765900,47.415472,AT
Kapall Startplatz,https://service.dhv.de/db2/details.php?qi=glp_details&popup=1&item=1384,10.248203,47.148253,AT
Kriegerhorn Startplatz,https://service.dhv.de/db2/details.php?qi=glp_details&popup=1&item=1385,10.115831,47.214064,AT
Schnifis Startplatz,https://service.dhv.de/db2/details.php?qi=glp_details&popup=1&item=1386,9.739483,47.228319,AT
Trattberg Startplatz 1,https://service.dhv.de/db2/details.php?qi=glp_details&popup=1&item=1388,13.268861,47.637500,AT
Pernegg Startplatz,https://service.dhv.de/db2/details.php?qi=glp_details&popup=1&item=1389,13.356457,47.606980,AT
Karkogel Startplatz,https://service.dhv.de/db2/details.php?qi=glp_details&popup=1&item=1390,13.359917,47.545054,AT
Bischling Startplatz 1,https://service.dhv.de/db2/details.php?qi=glp_details&popup=1&item=1391,13.297344,47.462228,AT
Hochstall Startplatz,https://service.dhv.de/db2/details.php?qi=glp_details&popup=1&item=1392,13.383923,47.611284,AT
Einberg Startplatz,https://service.dhv.de/db2/details.php?qi=glp_details&popup=1&item=1393,13.360743,47.617432,AT
Schönbüel Startplatz,https://service.dhv.de/db2/details.php?qi=glp_details&popup=1&item=1394,8.098933,46.787344,CH
Hüttstett Startplatz,https://service.dhv.de/db2/details.php?qi=glp_details&popup=1&item=1395,8.194472,46.787944,CH
Melchsee-Frutt Startplatz,https://service.dhv.de/db2/details.php?qi=glp_details&popup=1&item=1396,8.268794,46.778553,CH
Bonistock Startplatz,https://service.dhv.de/db2/details.php?qi=glp_details&popup=1&item=1397,8.290389,46.778092,CH
Linderenalp Startplatz,https://service.dhv.de/db2/details.php?qi=glp_details&popup=1&item=1398,8.297142,46.870528,CH
Ruedlen Startplatz,https://service.dhv.de/db2/details.php?qi=glp_details&popup=1&item=1399,8.317283,46.898367,CH
Arvialp Startplatz,https://service.dhv.de/db2/details.php?qi=glp_details&popup=1&item=1400,8.330175,46.892069,CH
Stanserhorn Startplatz 1,https://service.dhv.de/db2/details.php?qi=glp_details&popup=1&item=1401,8.341176,46.929788,CH
Musenalp Startplatz,https://service.dhv.de/db2/details.php?qi=glp_details&popup=1&item=1402,8.442561,46.929044,CH
Haldigrat Startplatz 1,https://service.dhv.de/db2/details.php?qi=glp_details&popup=1&item=1403,8.440633,46.902398,CH
Herlisberg Startplatz,https://service.dhv.de/db2/details.php?qi=glp_details&popup=1&item=1404,8.232744,47.198167,CH
Klewenalp Startplatz,https://service.dhv.de/db2/details.php?qi=glp_details&popup=1&item=1405,8.476036,46.940211,CH
Fronalpstock Startplatz 1,https://service.dhv.de/db2/details.php?qi=glp_details&popup=1&item=1406,8.637519,46.968883,CH
Startplatz Mostelegg,https://service.dhv.de/db2/details.php?qi=glp_details&popup=1&item=1407,8.659040,47.055512,CH
Hochstuckli Startplatz,https://service.dhv.de/db2/details.php?qi=glp_details&popup=1&item=1408,8.669736,47.057586,CH
Haggenegg Startplatz,https://service.dhv.de/db2/details.php?qi=glp_details&popup=1&item=1409,8.682306,47.054678,CH
Egelstock Startplatz,https://service.dhv.de/db2/details.php?qi=glp_details&popup=1&item=1410,8.645133,47.057592,CH
Rigi-Scheidegg Startplatz 1,https://service.dhv.de/db2/details.php?qi=glp_details&popup=1&item=1411,8.519945,47.027875,CH
Zugerberg Startplatz,https://service.dhv.de/db2/details.php?qi=glp_details&popup=1&item=1412,8.535844,47.147936,CH
Rotenfluh Startplatz 2,https://service.dhv.de/db2/details.php?qi=glp_details&popup=1&item=1413,8.701742,47.018908,CH
Grünberg Startplatz,https://service.dhv.de/db2/details.php?qi=glp_details&popup=1&item=1414,13.817728,47.898231,AT
Feuerkogel Startplatz 1,https://service.dhv.de/db2/details.php?qi=glp_details&popup=1&item=1415,13.719419,47.816506,AT
Loser Startplatz 1,https://service.dhv.de/db2/details.php?qi=glp_details&popup=1&item=1416,13.777778,47.663000,AT
Rittisberg Startplatz,https://service.dhv.de/db2/details.php?qi=glp_details&popup=1&item=1417,13.614211,47.419506,AT
Reiteralm Startplatz,https://service.dhv.de/db2/details.php?qi=glp_details&popup=1&item=1418,13.592083,47.353008,AT
Dachstein Startplatz,https://service.dhv.de/db2/details.php?qi=glp_details&popup=1&item=1419,13.627464,47.467261,AT
Zwieselalm Startplatz,https://service.dhv.de/db2/details.php?qi=glp_details&popup=1&item=1420,13.477027,47.538753,AT
Kalmberg Startplatz,https://service.dhv.de/db2/details.php?qi=glp_details&popup=1&item=1421,13.567492,47.612431,AT
Krippenstein Startplatz,https://service.dhv.de/db2/details.php?qi=glp_details&popup=1&item=1422,13.692044,47.528528,AT
Schafberg Startplatz,https://service.dhv.de/db2/details.php?qi=glp_details&popup=1&item=1423,13.431805,47.776449,AT
Zwölferhorn Startplatz 1,https://service.dhv.de/db2/details.php?qi=glp_details&popup=1&item=1424,13.351750,47.742711,AT
Hahnenkamm Kitzbühel Startplatz 2,https://service.dhv.de/db2/details.php?qi=glp_details&popup=1&item=1425,12.370344,47.424797,AT
Lärchfilzkogel Startplatz,https://service.dhv.de/db2/details.php?qi=glp_details&popup=1&item=1426,12.549006,47.443081,AT
Kitzeck Startplatz,https://service.dhv.de/db2/details.php?qi=glp_details&popup=1&item=1427,15.467172,46.775336,AT
Pongratzen Startplatz,https://service.dhv.de/db2/details.php?qi=glp_details&popup=1&item=1428,15.300494,46.653447,AT
Wechtisch Startplatz,https://service.dhv.de/db2/details.php?qi=glp_details&popup=1&item=1429,15.356283,46.654642,AT
Jöchelspitze Startplatz 3,https://service.dhv.de/db2/details.php?qi=glp_details&popup=1&item=1435,10.370106,47.278189,AT
Kreuzjoch -Schlick 2000 Startplatz 1,https://service.dhv.de/db2/details.php?qi=glp_details&popup=1&item=1436,11.307597,47.145081,AT
Predigberg Startplatz 3,https://service.dhv.de/db2/details.php?qi=glp_details&popup=1&item=1437,10.220083,46.963447,AT
Adamsberg Startplatz,https://service.dhv.de/db2/details.php?qi=glp_details&popup=1&item=1438,10.199617,46.987042,AT
Mutmanör Startplatz,https://service.dhv.de/db2/details.php?qi=glp_details&popup=1&item=1440,10.277844,47.030372,AT
Lattenkopf Startplatz,https://service.dhv.de/db2/details.php?qi=glp_details&popup=1&item=1441,10.268625,47.017867,AT
Rofan Startplatz Mauritzalm,https://service.dhv.de/db2/details.php?qi=glp_details&popup=1&item=1442,11.763489,47.443911,AT
Zwölferkopf Startplatz 1,https://service.dhv.de/db2/details.php?qi=glp_details&popup=1&item=1443,11.696397,47.427475,AT
Golzentipp Startplatz 2,https://service.dhv.de/db2/details.php?qi=glp_details&popup=1&item=1444,12.622647,46.725300,AT
Startplatz Ebnerfeld,https://service.dhv.de/db2/details.php?qi=glp_details&popup=1&item=1445,12.794667,46.852833,AT
Seefelder Joch Startplatz,https://service.dhv.de/db2/details.php?qi=glp_details&popup=1&item=1447,11.239606,47.339786,AT
Oetz Startplatz 1,https://service.dhv.de/db2/details.php?qi=glp_details&popup=1&item=1449,10.935247,47.208733,AT
Hochzeiger Startplatz 1,https://service.dhv.de/db2/details.php?qi=glp_details&popup=1&item=1450,10.794772,47.148825,AT
Giggijoch Startplatz,https://service.dhv.de/db2/details.php?qi=glp_details&popup=1&item=1451,10.975489,46.979153,AT
Greit Startplatz,https://service.dhv.de/db2/details.php?qi=glp_details&popup=1&item=1452,10.561050,46.967300,AT
Kobl Startplatz,https://service.dhv.de/db2/details.php?qi=glp_details&popup=1&item=1453,10.495580,46.971988,AT
Venet Startplatz 1,https://service.dhv.de/db2/details.php?qi=glp_details&popup=1&item=1454,10.624981,47.145492,AT
Schönjoch Startplatz 2,https://service.dhv.de/db2/details.php?qi=glp_details&popup=1&item=1455,10.598519,47.078350,AT
Hochimst Startplatz,https://service.dhv.de/db2/details.php?qi=glp_details&popup=1&item=1456,10.677231,47.255994,AT
Christlum Startplatz,https://service.dhv.de/db2/details.php?qi=glp_details&popup=1&item=1457,11.661656,47.504106,AT
Hochficht Startplatz,https://service.dhv.de/db2/details.php?qi=glp_details&popup=1&item=1458,13.918916,48.736373,AT
Nordkette Startplatz 1,https://service.dhv.de/db2/details.php?qi=glp_details&popup=1&item=1459,11.384439,47.312697,AT
Hinterhornalm Startplatz 1,https://service.dhv.de/db2/details.php?qi=glp_details&popup=1&item=1460,11.565078,47.334472,AT
Hochjoch Startplatz 2,https://service.dhv.de/db2/details.php?qi=glp_details&popup=1&item=1461,9.974167,47.064008,AT
Golm Startplatz,https://service.dhv.de/db2/details.php?qi=glp_details&popup=1&item=1462,9.837456,47.062586,AT
Gaflei Startplatz Bargella,https://service.dhv.de/db2/details.php?qi=glp_details&popup=1&item=1465,9.548869,47.141433,LI
Palfries Startplatz 2,https://service.dhv.de/db2/details.php?qi=glp_details&popup=1&item=1466,9.421972,47.074672,CH
Studnerberg Startplatz,https://service.dhv.de/db2/details.php?qi=glp_details&popup=1&item=1467,9.424647,47.165769,CH
Chäserugg Startplatz 3,https://service.dhv.de/db2/details.php?qi=glp_details&popup=1&item=1468,9.304675,47.153500,CH
Burst Startplatz,https://service.dhv.de/db2/details.php?qi=glp_details&popup=1&item=1469,9.302100,47.208675,CH
Stockberg Startplatz,https://service.dhv.de/db2/details.php?qi=glp_details&popup=1&item=1470,9.237728,47.224150,CH
Hüsli Berneck Startplatz,https://service.dhv.de/db2/details.php?qi=glp_details&popup=1&item=1471,9.596236,47.429650,CH
Motlinger Schwamm Startplatz,https://service.dhv.de/db2/details.php?qi=glp_details&popup=1&item=1472,9.510061,47.311008,CH
Gschwänd Startplatz,https://service.dhv.de/db2/details.php?qi=glp_details&popup=1&item=1473,8.871764,47.155808,CH
Hüsliberg Startplatz,https://service.dhv.de/db2/details.php?qi=glp_details&popup=1&item=1474,9.074622,47.189689,CH
Kerenzerberg Startplatz,https://service.dhv.de/db2/details.php?qi=glp_details&popup=1&item=1475,9.084589,47.109944,CH
Fronalp Startplatz,https://service.dhv.de/db2/details.php?qi=glp_details&popup=1&item=1476,9.091219,47.072365,CH
Braunwald Startplatz 2,https://service.dhv.de/db2/details.php?qi=glp_details&popup=1&item=1477,8.987394,46.959572,CH
Waldlaubersheim Startplatz,https://service.dhv.de/db2/details.php?qi=glp_details&popup=1&item=1479,7.826583,49.936778,DE
Jakobshorn Startplatz 2,https://service.dhv.de/db2/details.php?qi=glp_details&popup=1&item=1481,9.846125,46.772819,CH
Parsenn Startplatz 2,https://service.dhv.de/db2/details.php?qi=glp_details&popup=1&item=1482,9.794594,46.837761,CH
Gotschnagrat Startplatz 1,https://service.dhv.de/db2/details.php?qi=glp_details&popup=1&item=1483,9.845510,46.858738,CH
Schatzalp Startplatz,https://service.dhv.de/db2/details.php?qi=glp_details&popup=1&item=1484,9.817144,46.805203,CH
Parpaner Rothorn Startplatz,https://service.dhv.de/db2/details.php?qi=glp_details&popup=1&item=1485,9.602075,46.742286,CH
Scalottas Startplatz 1,https://service.dhv.de/db2/details.php?qi=glp_details&popup=1&item=1486,9.510169,46.721277,CH
Präzer Alp Startplatz 2,https://service.dhv.de/db2/details.php?qi=glp_details&popup=1&item=1487,9.373931,46.739297,CH
Trans Startplatz,https://service.dhv.de/db2/details.php?qi=glp_details&popup=1&item=1488,9.460375,46.763669,CH
Feldis Startplatz 2,https://service.dhv.de/db2/details.php?qi=glp_details&popup=1&item=1489,9.455831,46.796278,CH
Crap Sogn Gion Startplatz,https://service.dhv.de/db2/details.php?qi=glp_details&popup=1&item=1490,9.217025,46.834728,CH
Cassons Startplatz 2,https://service.dhv.de/db2/details.php?qi=glp_details&popup=1&item=1491,9.266111,46.878889,CH
Stein Startplatz,https://service.dhv.de/db2/details.php?qi=glp_details&popup=1&item=1492,9.126269,46.725819,CH
Hitzeggen Startplatz,https://service.dhv.de/db2/details.php?qi=glp_details&popup=1&item=1493,9.143608,46.735967,CH
Piz Mundaun Startplatz,https://service.dhv.de/db2/details.php?qi=glp_details&popup=1&item=1494,9.158194,46.742264,CH
Schwarzenbach Start-/Landeplatz,https://service.dhv.de/db2/details.php?qi=glp_details&popup=1&item=1497,16.334719,47.644642,AT
Spitzerberg Übungshang,https://service.dhv.de/db2/details.php?qi=glp_details&popup=1&item=1498,16.939503,48.100431,AT
Schareck Startplatz,https://service.dhv.de/db2/details.php?qi=glp_details&popup=1&item=1499,12.857222,47.064822,AT
Petzen Startplatz,https://service.dhv.de/db2/details.php?qi=glp_details&popup=1&item=1500,14.771992,46.518792,AT
Semslach Startplatz,https://service.dhv.de/db2/details.php?qi=glp_details&popup=1&item=1501,13.169636,46.949675,AT
Hundsheimer Berg Startplatz 3,https://service.dhv.de/db2/details.php?qi=glp_details&popup=1&item=1503,16.939577,48.123949,AT
Ötscher Startplatz,https://service.dhv.de/db2/details.php?qi=glp_details&popup=1&item=1504,15.180972,47.856325,AT
Marsbach Startplatz,https://service.dhv.de/db2/details.php?qi=glp_details&popup=1&item=1506,13.817314,48.462911,AT
Prägraten Startplatz,https://service.dhv.de/db2/details.php?qi=glp_details&popup=1&item=1507,12.354378,47.038019,AT
Stalpe Startplatz,https://service.dhv.de/db2/details.php?qi=glp_details&popup=1&item=1508,12.417244,46.757357,AT
Petersberg Startplatz,https://service.dhv.de/db2/details.php?qi=glp_details&popup=1&item=1509,12.427831,46.755846,AT
Virgen Startplatz 1,https://service.dhv.de/db2/details.php?qi=glp_details&popup=1&item=1511,12.426444,47.024700,AT
Gebrenzen Startplatz,https://service.dhv.de/db2/details.php?qi=glp_details&popup=1&item=1512,14.331519,47.038769,AT
Greim Startplatz,https://service.dhv.de/db2/details.php?qi=glp_details&popup=1&item=1513,14.161478,47.225519,AT
Großstübing Startplatz,https://service.dhv.de/db2/details.php?qi=glp_details&popup=1&item=1514,15.225933,47.208192,AT
Grubigstein Startplatz 1,https://service.dhv.de/db2/details.php?qi=glp_details&popup=1&item=1517,10.847808,47.385719,AT
Stöfflerberg Startplatz,https://service.dhv.de/db2/details.php?qi=glp_details&popup=1&item=1523,13.193383,46.651147,AT
Plose Startplatz 1,https://service.dhv.de/db2/details.php?qi=glp_details&popup=1&item=1537,11.712231,46.687553,IT
Lüsen Startplatz,https://service.dhv.de/db2/details.php?qi=glp_details&popup=1&item=1538,11.754350,46.762856,IT
Seceda Startplatz 1,https://service.dhv.de/db2/details.php?qi=glp_details&popup=1&item=1548,11.724503,46.596900,IT
Monte Cesen Startplatz 2,https://service.dhv.de/db2/details.php?qi=glp_details&popup=1&item=1549,12.020517,45.930939,IT
Antenna Castalunga Startplatz,https://service.dhv.de/db2/details.php?qi=glp_details&popup=1&item=1550,11.745125,45.811711,IT
Bassano Startplatz 5 (Panettone),https://service.dhv.de/db2/details.php?qi=glp_details&popup=1&item=1551,11.803903,45.861450,IT
Alpe Cermis Startplatz,https://service.dhv.de/db2/details.php?qi=glp_details&popup=1&item=1554,11.503603,46.243986,IT
Monte Panarotta Startplatz,https://service.dhv.de/db2/details.php?qi=glp_details&popup=1&item=1555,11.317114,46.041819,IT
Monte Summano Startplatz,https://service.dhv.de/db2/details.php?qi=glp_details&popup=1&item=1556,11.390175,45.756381,IT
Monte Novegno Startplatz,https://service.dhv.de/db2/details.php?qi=glp_details&popup=1&item=1557,11.308908,45.762983,IT
Ceresana Startplatz,https://service.dhv.de/db2/details.php?qi=glp_details&popup=1&item=1558,11.438133,45.803950,IT
Kanzel Startplatz,https://service.dhv.de/db2/details.php?qi=glp_details&popup=1&item=1559,10.607006,46.522819,IT
Hoch-Ybrig Startplatz,https://service.dhv.de/db2/details.php?qi=glp_details&popup=1&item=1560,8.801092,46.999550,CH
Motta Naluns Startplatz 2,https://service.dhv.de/db2/details.php?qi=glp_details&popup=1&item=1561,10.273193,46.812896,CH
Maschgenkamm Startplatz,https://service.dhv.de/db2/details.php?qi=glp_details&popup=1&item=1562,9.252078,47.069533,CH
Triesen Startplatz,https://service.dhv.de/db2/details.php?qi=glp_details&popup=1&item=1563,9.551525,47.131503,CH
Gitschenberg Startplatz,https://service.dhv.de/db2/details.php?qi=glp_details&popup=1&item=1564,8.590400,46.877353,CH
Lai Alv Startplatz 2,https://service.dhv.de/db2/details.php?qi=glp_details&popup=1&item=1565,8.788065,46.709456,CH
Piz Ault Startplatz,https://service.dhv.de/db2/details.php?qi=glp_details&popup=1&item=1566,8.782886,46.726967,CH
Plaun Tir Startplatz,https://service.dhv.de/db2/details.php?qi=glp_details&popup=1&item=1567,8.796842,46.706325,CH
Brüsti Startplatz 2,https://service.dhv.de/db2/details.php?qi=glp_details&popup=1&item=1568,8.601186,46.843494,CH
Ruogig Startplatz,https://service.dhv.de/db2/details.php?qi=glp_details&popup=1&item=1569,8.690506,46.906036,CH
Ratzi Startplatz,https://service.dhv.de/db2/details.php?qi=glp_details&popup=1&item=1570,8.728911,46.888392,CH
Titlis Startplatz,https://service.dhv.de/db2/details.php?qi=glp_details&popup=1&item=1571,8.434219,46.773444,CH
Planplatten Startplatz 2,https://service.dhv.de/db2/details.php?qi=glp_details&popup=1&item=1572,8.254825,46.736739,CH
Reuti Startplatz,https://service.dhv.de/db2/details.php?qi=glp_details&popup=1&item=1573,8.205569,46.737822,CH
Hofstetter Gummen Startplatz,https://service.dhv.de/db2/details.php?qi=glp_details&popup=1&item=1574,8.071331,46.779083,CH
Brienzer Rothorn Startplatz,https://service.dhv.de/db2/details.php?qi=glp_details&popup=1&item=1575,8.043019,46.787175,CH
Axalp Skiberg Startplatz,https://service.dhv.de/db2/details.php?qi=glp_details&popup=1&item=1576,8.035386,46.716394,CH
Windeck Startplatz,https://service.dhv.de/db2/details.php?qi=glp_details&popup=1&item=1577,8.036683,46.711600,CH
Hagleren Startplatz,https://service.dhv.de/db2/details.php?qi=glp_details&popup=1&item=1578,8.042628,46.836214,CH
Marbachegg Startplatz 1,https://service.dhv.de/db2/details.php?qi=glp_details&popup=1&item=1579,7.904714,46.834706,CH
Beichlen Startplatz 2,https://service.dhv.de/db2/details.php?qi=glp_details&popup=1&item=1580,7.973042,46.897167,CH
Niederhorn Startplatz 2,https://service.dhv.de/db2/details.php?qi=glp_details&popup=1&item=1581,7.776797,46.711472,CH
Amisbühl Startplatz 5 (Hohwald),https://service.dhv.de/db2/details.php?qi=glp_details&popup=1&item=1582,7.824061,46.713808,CH
Luegibrüggli Startplatz 2,https://service.dhv.de/db2/details.php?qi=glp_details&popup=1&item=1583,7.815953,46.691183,CH
Schynige Platte Startplatz 1,https://service.dhv.de/db2/details.php?qi=glp_details&popup=1&item=1584,7.902928,46.658225,CH
First Startplatz,https://service.dhv.de/db2/details.php?qi=glp_details&popup=1&item=1585,8.055132,46.657449,CH
Waldspitz Startplatz,https://service.dhv.de/db2/details.php?qi=glp_details&popup=1&item=1586,8.041861,46.652481,CH
Pfingstegg Startplatz,https://service.dhv.de/db2/details.php?qi=glp_details&popup=1&item=1587,8.056074,46.616133,CH
Männlichen Startplatz,https://service.dhv.de/db2/details.php?qi=glp_details&popup=1&item=1589,7.938842,46.616389,CH
Schilthorn Startplatz,https://service.dhv.de/db2/details.php?qi=glp_details&popup=1&item=1590,7.832975,46.558142,CH
Schiltgrat Startplatz,https://service.dhv.de/db2/details.php?qi=glp_details&popup=1&item=1591,7.872389,46.557031,CH
Wurmegg Startplatz,https://service.dhv.de/db2/details.php?qi=glp_details&popup=1&item=1592,7.887656,46.556222,CH
Oeschinen Startplatz 1,https://service.dhv.de/db2/details.php?qi=glp_details&popup=1&item=1593,7.696478,46.503403,CH
Allmenalp Startplatz,https://service.dhv.de/db2/details.php?qi=glp_details&popup=1&item=1594,7.650092,46.495022,CH
Niesen Startplatz,https://service.dhv.de/db2/details.php?qi=glp_details&popup=1&item=1595,7.649222,46.644350,CH
Mäggisseren Startplatz,https://service.dhv.de/db2/details.php?qi=glp_details&popup=1&item=1596,7.609292,46.588067,CH
Grimer Startplatz,https://service.dhv.de/db2/details.php?qi=glp_details&popup=1&item=1597,7.682392,46.553675,CH
Tschentenalp Startplatz 1,https://service.dhv.de/db2/details.php?qi=glp_details&popup=1&item=1598,7.541617,46.497117,CH
Engstligenalp Startplatz 2,https://service.dhv.de/db2/details.php?qi=glp_details&popup=1&item=1599,7.575578,46.447608,CH
Stockhorn Startplatz 2,https://service.dhv.de/db2/details.php?qi=glp_details&popup=1&item=1600,7.537648,46.693304,CH
Huus Startplatz,https://service.dhv.de/db2/details.php?qi=glp_details&popup=1&item=1601,7.536189,46.677067,CH
Mentschelenalp Startplatz,https://service.dhv.de/db2/details.php?qi=glp_details&popup=1&item=1602,7.509958,46.715497,CH
Wispile Startplatz 1,https://service.dhv.de/db2/details.php?qi=glp_details&popup=1&item=1603,7.293406,46.436794,CH
La Videmanette Startplatz 1,https://service.dhv.de/db2/details.php?qi=glp_details&popup=1&item=1604,7.205225,46.459847,CH
Rellerligrat Startplatz,https://service.dhv.de/db2/details.php?qi=glp_details&popup=1&item=1605,7.262371,46.508583,CH
Horneggli Startplatz,https://service.dhv.de/db2/details.php?qi=glp_details&popup=1&item=1606,7.311350,46.487592,CH
Wasserngrat Startplatz 1,https://service.dhv.de/db2/details.php?qi=glp_details&popup=1&item=1607,7.325250,46.455694,CH
Hügeligrat Startplatz,https://service.dhv.de/db2/details.php?qi=glp_details&popup=1&item=1608,7.266497,46.519681,CH
Rinderberg Startplatz 2,https://service.dhv.de/db2/details.php?qi=glp_details&popup=1&item=1609,7.356744,46.505478,CH
Danielsweid Startplatz,https://service.dhv.de/db2/details.php?qi=glp_details&popup=1&item=1610,7.400806,46.558117,CH
Schatthorn Startplatz,https://service.dhv.de/db2/details.php?qi=glp_details&popup=1&item=1611,7.481081,46.471733,CH
Metsch Startplatz 1,https://service.dhv.de/db2/details.php?qi=glp_details&popup=1&item=1612,7.496628,46.443497,CH
Betelberg Startplatz,https://service.dhv.de/db2/details.php?qi=glp_details&popup=1&item=1613,7.413825,46.434392,CH
Bölchen Startplatz,https://service.dhv.de/db2/details.php?qi=glp_details&popup=1&item=1614,7.802286,47.365758,CH
Hundwiler Höhi Startplatz,https://service.dhv.de/db2/details.php?qi=glp_details&popup=1&item=1615,9.333208,47.340700,CH
Albristhubel Startplatz,https://service.dhv.de/db2/details.php?qi=glp_details&popup=1&item=1616,7.462989,46.511686,CH
Eggli Startplatz,https://service.dhv.de/db2/details.php?qi=glp_details&popup=1&item=1617,7.266447,46.463228,CH
Abendberg,https://service.dhv.de/db2/details.php?qi=glp_details&popup=1&item=1619,7.522444,46.622644,CH
Alp da la Creusch Startplatz,https://service.dhv.de/db2/details.php?qi=glp_details&popup=1&item=1620,9.642131,46.705989,CH
Alp Stätz Startplatz,https://service.dhv.de/db2/details.php?qi=glp_details&popup=1&item=1621,9.516372,46.756267,CH
Alpe del Caviano Startplatz,https://service.dhv.de/db2/details.php?qi=glp_details&popup=1&item=1622,9.007944,45.877803,CH
Bächigalen Startplatz,https://service.dhv.de/db2/details.php?qi=glp_details&popup=1&item=1623,8.227353,46.487744,CH
Bellalui Startplatz,https://service.dhv.de/db2/details.php?qi=glp_details&popup=1&item=1624,7.485850,46.344289,CH
Bendolla Startplatz 1,https://service.dhv.de/db2/details.php?qi=glp_details&popup=1&item=1625,7.555378,46.177811,CH
La Berneuse Startplatz,https://service.dhv.de/db2/details.php?qi=glp_details&popup=1&item=1626,7.002464,46.359203,CH
Chasseral Süd Startplatz,https://service.dhv.de/db2/details.php?qi=glp_details&popup=1&item=1627,7.047192,47.126597,CH
Chasseral Nord Startplatz,https://service.dhv.de/db2/details.php?qi=glp_details&popup=1&item=1628,7.046844,47.128476,CH
Corgémont Startplatz,https://service.dhv.de/db2/details.php?qi=glp_details&popup=1&item=1629,7.136994,47.173494,CH
Montoz Süd Startplatz,https://service.dhv.de/db2/details.php?qi=glp_details&popup=1&item=1630,7.215622,47.206450,CH
Montoz Nord Startplatz,https://service.dhv.de/db2/details.php?qi=glp_details&popup=1&item=1631,7.216294,47.208183,CH
Bözigenberg Startplatz 1,https://service.dhv.de/db2/details.php?qi=glp_details&popup=1&item=1632,7.293775,47.174489,CH
Grenchenberg Bützen Startplatz,https://service.dhv.de/db2/details.php?qi=glp_details&popup=1&item=1633,7.391692,47.222556,CH
Grenchenberg Nord Startplatz,https://service.dhv.de/db2/details.php?qi=glp_details&popup=1&item=1634,7.380025,47.229806,CH
Hasenmatt Startplatz,https://service.dhv.de/db2/details.php?qi=glp_details&popup=1&item=1635,7.451494,47.242078,CH
Weissenstein Startplatz,https://service.dhv.de/db2/details.php?qi=glp_details&popup=1&item=1636,7.510144,47.250714,CH
Ambroz Sp. poseka Startplatz,https://service.dhv.de/db2/details.php?qi=glp_details&popup=1&item=1638,14.530556,46.277364,SI
Ambroz Zg. poseka Startplatz,https://service.dhv.de/db2/details.php?qi=glp_details&popup=1&item=1639,14.524861,46.281686,SI
Dobrca Startplatz,https://service.dhv.de/db2/details.php?qi=glp_details&popup=1&item=1640,14.246406,46.375892,SI
Dobrca - zmajarska Startplatz,https://service.dhv.de/db2/details.php?qi=glp_details&popup=1&item=1641,14.262436,46.371389,SI
Donacka gora Startplatz,https://service.dhv.de/db2/details.php?qi=glp_details&popup=1&item=1642,15.731478,46.261566,SI
Drazgoska gora Startplatz,https://service.dhv.de/db2/details.php?qi=glp_details&popup=1&item=1643,14.170797,46.258475,SI
Goljak Startplatz,https://service.dhv.de/db2/details.php?qi=glp_details&popup=1&item=1644,14.396817,45.517978,SI
Golte - Boskovec Startplatz 1,https://service.dhv.de/db2/details.php?qi=glp_details&popup=1&item=1645,14.910158,46.373719,SI
Golte - Medvedjak Startplatz,https://service.dhv.de/db2/details.php?qi=glp_details&popup=1&item=1646,14.895531,46.368211,SI
Gozd Startplatz,https://service.dhv.de/db2/details.php?qi=glp_details&popup=1&item=1647,14.331336,46.339381,SI
Kobala Startplatz,https://service.dhv.de/db2/details.php?qi=glp_details&popup=1&item=1648,13.779409,46.181207,SI
Kobariski Kuk Startplatz,https://service.dhv.de/db2/details.php?qi=glp_details&popup=1&item=1649,13.619508,46.195636,SI
Kobariski Stol Startplatz 1,https://service.dhv.de/db2/details.php?qi=glp_details&popup=1&item=1650,13.473321,46.273325,SI
Konjiska gora Startplatz,https://service.dhv.de/db2/details.php?qi=glp_details&popup=1&item=1651,15.346500,46.334639,SI
Kopitnik Startplatz,https://service.dhv.de/db2/details.php?qi=glp_details&popup=1&item=1652,15.175919,46.112717,SI
Kriska gora Startplatz,https://service.dhv.de/db2/details.php?qi=glp_details&popup=1&item=1654,14.332519,46.351592,SI
Krvavec Startplatz,https://service.dhv.de/db2/details.php?qi=glp_details&popup=1&item=1655,14.529194,46.296232,SI
Lijak Startplatz 2,https://service.dhv.de/db2/details.php?qi=glp_details&popup=1&item=1656,13.776556,45.945650,SI
Lisca Startplatz 3,https://service.dhv.de/db2/details.php?qi=glp_details&popup=1&item=1657,15.283467,46.068747,SI
Mala gora Startplatz,https://service.dhv.de/db2/details.php?qi=glp_details&popup=1&item=1658,15.339831,46.357608,SI
Malic Startplatz,https://service.dhv.de/db2/details.php?qi=glp_details&popup=1&item=1659,15.205578,46.182211,SI
Mariborsko Pohorje Startplatz,https://service.dhv.de/db2/details.php?qi=glp_details&popup=1&item=1660,15.580000,46.516297,SI
Mrzli vrh - Matajur Startplatz,https://service.dhv.de/db2/details.php?qi=glp_details&popup=1&item=1661,13.566194,46.208925,SI
Pernice Startplatz,https://service.dhv.de/db2/details.php?qi=glp_details&popup=1&item=1662,15.106794,46.621458,SI
Ratitovec Startplatz,https://service.dhv.de/db2/details.php?qi=glp_details&popup=1&item=1663,14.090994,46.236158,SI
Smuk Startplatz,https://service.dhv.de/db2/details.php?qi=glp_details&popup=1&item=1664,15.180628,45.661039,SI
Sorica Startplatz,https://service.dhv.de/db2/details.php?qi=glp_details&popup=1&item=1665,14.010186,46.231319,SI
Srednji Startplatz,https://service.dhv.de/db2/details.php?qi=glp_details&popup=1&item=1666,14.312008,45.548081,SI
Straski hrib - Peter Startplatz,https://service.dhv.de/db2/details.php?qi=glp_details&popup=1&item=1667,15.049222,45.777522,SI
Sveti Peter Startplatz,https://service.dhv.de/db2/details.php?qi=glp_details&popup=1&item=1668,14.192917,46.382836,SI
Vogar Startplatz,https://service.dhv.de/db2/details.php?qi=glp_details&popup=1&item=1670,13.875281,46.294622,SI
Zabocevo Startplatz,https://service.dhv.de/db2/details.php?qi=glp_details&popup=1&item=1671,14.409528,45.907106,SI
Zapodje Startplatz,https://service.dhv.de/db2/details.php?qi=glp_details&popup=1&item=1672,14.795567,46.118575,SI
Bruniswald Startplatz,https://service.dhv.de/db2/details.php?qi=glp_details&popup=1&item=1673,8.396514,46.864328,CH
Buochser Horn Startplatz,https://service.dhv.de/db2/details.php?qi=glp_details&popup=1&item=1674,8.428739,46.945039,CH
Caischavedra Startplatz,https://service.dhv.de/db2/details.php?qi=glp_details&popup=1&item=1675,8.809414,46.707736,CH
Calandasiten Startplatz,https://service.dhv.de/db2/details.php?qi=glp_details&popup=1&item=1676,9.469044,46.892833,CH
Chaumont Startplatz,https://service.dhv.de/db2/details.php?qi=glp_details&popup=1&item=1677,6.978083,47.053394,CH
Chou ou Tsou Startplatz,https://service.dhv.de/db2/details.php?qi=glp_details&popup=1&item=1678,7.160961,46.191897,CH
Chulm Startplatz,https://service.dhv.de/db2/details.php?qi=glp_details&popup=1&item=1679,8.550864,46.945661,CH
Cimetta Startplatz,https://service.dhv.de/db2/details.php?qi=glp_details&popup=1&item=1680,8.787942,46.199819,CH
Col de Sorebois Startplatz 2,https://service.dhv.de/db2/details.php?qi=glp_details&popup=1&item=1681,7.586203,46.150553,CH
Aiguille de Champeys Startplatz,https://service.dhv.de/db2/details.php?qi=glp_details&popup=1&item=1683,6.847361,46.204117,CH
Croix de Coeur Startplatz 1,https://service.dhv.de/db2/details.php?qi=glp_details&popup=1&item=1684,7.232963,46.121563,CH
Planachaux Startplatz 2,https://service.dhv.de/db2/details.php?qi=glp_details&popup=1&item=1685,6.840450,46.177361,CH
Croix de L'Aiguille Startplatz,https://service.dhv.de/db2/details.php?qi=glp_details&popup=1&item=1686,6.860664,46.196261,CH
Alp Darlux Startplatz,https://service.dhv.de/db2/details.php?qi=glp_details&popup=1&item=1687,9.779858,46.624214,CH
Rigi-Staffelhöhe Startplatz,https://service.dhv.de/db2/details.php?qi=glp_details&popup=1&item=1689,8.460653,47.047528,CH
Falera Startplatz,https://service.dhv.de/db2/details.php?qi=glp_details&popup=1&item=1690,9.230484,46.798671,CH
Farneren Startplatz 1,https://service.dhv.de/db2/details.php?qi=glp_details&popup=1&item=1691,8.043436,46.935019,CH
Flöschhorn Startplatz,https://service.dhv.de/db2/details.php?qi=glp_details&popup=1&item=1692,7.405956,46.463344,CH
